{"type":"FeatureCollection","crs":{"type":"name","properties":{"name":"EPSG:32640"}},"features":[{"type":"Feature","id":1,"geometry":{"type":"Point","coordinates":[180394.44440000039,1883884.7052999996]},"properties":{"OBJECTID":1,"Asset_ID":"CFE1","Name":"مقهى","District_I":"Auqad al Shamaliyya Extension","Gov_ID":"Dhofar Governorate","Wlyt_ID":"Salalah","Road_ID":" ","Latitude":17.016975729999999,"Longitude":53.998284230000003,"GlobalID":"{4796C1A3-FBCA-4808-A41A-97999FADB178}"}},{"type":"Feature","id":2,"geometry":{"type":"Point","coordinates":[182488.75239999965,1885500.8787999991]},"properties":{"OBJECTID":2,"Asset_ID":"CFE3","Name":"coffee king","District_I":"Auqad al Shamaliyya Extension","Gov_ID":"Dhofar Governorate","Wlyt_ID":"Salalah","Road_ID":" ","Latitude":17.031854460000002,"Longitude":54.017703089999998,"GlobalID":"{ED4BF2D7-FED6-447C-959E-BCD78F5F135E}"}},{"type":"Feature","id":3,"geometry":{"type":"Point","coordinates":[182537.77419999987,1885494.5932]},"properties":{"OBJECTID":3,"Asset_ID":"CFE4","Name":"مقهى برق و رعد ذهبي","District_I":"Auqad al Shamaliyya Extension","Gov_ID":"Dhofar Governorate","Wlyt_ID":"Salalah","Road_ID":" ","Latitude":17.031804470000001,"Longitude":54.018163979999997,"GlobalID":"{48AAF4EA-B389-40ED-834C-AC4A863FF164}"}},{"type":"Feature","id":4,"geometry":{"type":"Point","coordinates":[182974.65419999976,1886335.5910999998]},"properties":{"OBJECTID":4,"Asset_ID":"CFE5","Name":"Coffee shop\r\n","District_I":"Auqad al Shamaliyya Extension","Gov_ID":"Dhofar Governorate","Wlyt_ID":"Salalah","Road_ID":" ","Latitude":17.0394565,"Longitude":54.02214317,"GlobalID":"{9F0AA22F-2E1B-4703-8321-21C40ADADF21}"}},{"type":"Feature","id":5,"geometry":{"type":"Point","coordinates":[184236.73890000023,1886360.5742000006]},"properties":{"OBJECTID":5,"Asset_ID":"CFE6","Name":"BARQ WA RAAD MURABBA GM","District_I":"Auqad al Shamaliyya Extension","Gov_ID":"Dhofar Governorate","Wlyt_ID":"Salalah","Road_ID":" ","Latitude":17.039855360000001,"Longitude":54.033982940000001,"GlobalID":"{50A9E1DB-5C43-4399-839E-292D7B0FF1AA}"}},{"type":"Feature","id":6,"geometry":{"type":"Point","coordinates":[184268.82500000019,1886300.8107999992]},"properties":{"OBJECTID":6,"Asset_ID":"CFE7","Name":"مقهى","District_I":"Auqad al Shamaliyya Extension","Gov_ID":"Dhofar Governorate","Wlyt_ID":"Salalah","Road_ID":" ","Latitude":17.039320249999999,"Longitude":54.034292550000004,"GlobalID":"{CA1E7FA0-D292-4E3E-A74E-6E1B2A78FC34}"}},{"type":"Feature","id":7,"geometry":{"type":"Point","coordinates":[186275.62980000023,1887325.1941]},"properties":{"OBJECTID":7,"Asset_ID":"CFE9","Name":"مقهى المروج\r\n","District_I":" ","Gov_ID":"Dhofar Governorate","Wlyt_ID":"Salalah","Road_ID":" ","Latitude":17.048842010000001,"Longitude":54.052979499999999,"GlobalID":"{EC1C1C2C-2D2D-4D79-9E66-3A1B40A78360}"}},{"type":"Feature","id":8,"geometry":{"type":"Point","coordinates":[186823.66289999988,1887340.1636999995]},"properties":{"OBJECTID":8,"Asset_ID":"CFE10","Name":"وقت الشاي","District_I":" ","Gov_ID":"Dhofar Governorate","Wlyt_ID":"Salalah","Road_ID":" ","Latitude":17.049051760000001,"Longitude":54.058120479999999,"GlobalID":"{2E97D841-F978-476B-869B-3BDD4D3C9A2E}"}},{"type":"Feature","id":9,"geometry":{"type":"Point","coordinates":[187969.6958999997,1890485.8727000002]},"properties":{"OBJECTID":9,"Asset_ID":"CFE11","Name":"Hills Cafe (Ittin Square)","District_I":" ","Gov_ID":"Dhofar Governorate","Wlyt_ID":"Salalah","Road_ID":" ","Latitude":17.077605559999999,"Longitude":54.068432059999999,"GlobalID":"{6364DE54-D4D8-49C6-BDB8-B16AAFD48B95}"}},{"type":"Feature","id":10,"geometry":{"type":"Point","coordinates":[187802.35529999994,1890504.7712999992]},"properties":{"OBJECTID":10,"Asset_ID":"CFE12","Name":"شاي الزعيم","District_I":" ","Gov_ID":"Dhofar Governorate","Wlyt_ID":"Salalah","Road_ID":" ","Latitude":17.077753439999999,"Longitude":54.066858699999997,"GlobalID":"{F4851F7A-CF02-4610-AF9A-A1BA2D7639AC}"}},{"type":"Feature","id":11,"geometry":{"type":"Point","coordinates":[190436.20839999989,1891886.9708999991]},"properties":{"OBJECTID":11,"Asset_ID":"CFE13","Name":"شاي الريف","District_I":" ","Gov_ID":"Dhofar Governorate","Wlyt_ID":"Salalah","Road_ID":" ","Latitude":17.090587889999998,"Longitude":54.091387159999996,"GlobalID":"{D1CAE522-3F5D-4C35-9A9D-23C15E9F0025}"}},{"type":"Feature","id":12,"geometry":{"type":"Point","coordinates":[196340.64269999973,1892671.3699999992]},"properties":{"OBJECTID":12,"Asset_ID":"CFE14","Name":"وقت الشاي","District_I":" ","Gov_ID":"Dhofar Governorate","Wlyt_ID":"Salalah","Road_ID":" ","Latitude":17.098457969999998,"Longitude":54.146705849999996,"GlobalID":"{91492B05-F1BD-4A3B-B460-F3A235A43C53}"}},{"type":"Feature","id":13,"geometry":{"type":"Point","coordinates":[196457.61429999955,1892934.1187999994]},"properties":{"OBJECTID":13,"Asset_ID":"CFE15","Name":"مقهى","District_I":" ","Gov_ID":"Dhofar Governorate","Wlyt_ID":"Salalah","Road_ID":" ","Latitude":17.100845589999999,"Longitude":54.147767829999999,"GlobalID":"{63F63BC5-DC6B-4C57-A366-F8DD56D7FCD0}"}},{"type":"Feature","id":14,"geometry":{"type":"Point","coordinates":[200076.93070000038,1896244.9449000005]},"properties":{"OBJECTID":14,"Asset_ID":"CFE16","Name":"مقهى و معصرة فواكه","District_I":" ","Gov_ID":"Dhofar Governorate","Wlyt_ID":"Salalah","Road_ID":" ","Latitude":17.1312131,"Longitude":54.181296140000001,"GlobalID":"{145EBC1F-018F-435A-AE9E-A2080ED6FBFE}"}},{"type":"Feature","id":15,"geometry":{"type":"Point","coordinates":[203959.70569999982,1894112.1458999999]},"properties":{"OBJECTID":15,"Asset_ID":"CFE17","Name":"Ain arzat","District_I":" ","Gov_ID":"Dhofar Governorate","Wlyt_ID":"Salalah","Road_ID":" ","Latitude":17.112461769999999,"Longitude":54.21804178,"GlobalID":"{807C2D4D-9B6F-4ACA-848E-BEE60464C9BA}"}},{"type":"Feature","id":16,"geometry":{"type":"Point","coordinates":[204009.07479999959,1894220.8344000001]},"properties":{"OBJECTID":16,"Asset_ID":"CFE18","Name":"Arzath line restaurant","District_I":" ","Gov_ID":"Dhofar Governorate","Wlyt_ID":"Salalah","Road_ID":" ","Latitude":17.113449459999998,"Longitude":54.218490729999999,"GlobalID":"{E88EF687-C892-4449-A770-9EE8F2513BE0}"}},{"type":"Feature","id":17,"geometry":{"type":"Point","coordinates":[201306.63360000029,1893593.2925000004]},"properties":{"OBJECTID":17,"Asset_ID":"CFE19","Name":"مقهى","District_I":" ","Gov_ID":"Dhofar Governorate","Wlyt_ID":"Salalah","Road_ID":" ","Latitude":17.10743325,"Longitude":54.193202220000003,"GlobalID":"{326D824C-606C-4D0C-A365-F3FDD23F8B90}"}},{"type":"Feature","id":18,"geometry":{"type":"Point","coordinates":[193495.44560000021,1892348.9569000006]},"properties":{"OBJECTID":18,"Asset_ID":"CFE20","Name":"مقهى","District_I":" ","Gov_ID":"Dhofar Governorate","Wlyt_ID":"Salalah","Road_ID":" ","Latitude":17.09516906,"Longitude":54.120040580000001,"GlobalID":"{3ED571F1-BC44-47D7-BCC1-F8E2F3E5DFCC}"}},{"type":"Feature","id":19,"geometry":{"type":"Point","coordinates":[200595.67520000041,1894166.7400000002]},"properties":{"OBJECTID":19,"Asset_ID":"CFE21","Name":"مقهى","District_I":" ","Gov_ID":"Dhofar Governorate","Wlyt_ID":"Salalah","Road_ID":" ","Latitude":17.112517929999999,"Longitude":54.186449410000002,"GlobalID":"{C3F99275-DBB7-460A-960C-526487350A66}"}},{"type":"Feature","id":20,"geometry":{"type":"Point","coordinates":[196874.4793999996,1892821.5154999997]},"properties":{"OBJECTID":20,"Asset_ID":"CFE22","Name":"مقهى الشايب","District_I":" ","Gov_ID":"Dhofar Governorate","Wlyt_ID":"Salalah","Road_ID":" ","Latitude":17.09988409,"Longitude":54.15169684,"GlobalID":"{AE1AEA3A-C82D-45FB-A3F4-CA459DD5EFB4}"}},{"type":"Feature","id":21,"geometry":{"type":"Point","coordinates":[196835.34059999976,1892742.2470999993]},"properties":{"OBJECTID":21,"Asset_ID":"CFE23","Name":"قهوة المجلس","District_I":" ","Gov_ID":"Dhofar Governorate","Wlyt_ID":"Salalah","Road_ID":" ","Latitude":17.099163260000001,"Longitude":54.15134029,"GlobalID":"{BE7C3944-2BDD-40A3-AA9F-F65380C0CCDA}"}},{"type":"Feature","id":22,"geometry":{"type":"Point","coordinates":[182948.50690000039,1887647.7657999992]},"properties":{"OBJECTID":22,"Asset_ID":"CFE25","Name":"مقهى برجر رمان","District_I":" ","Gov_ID":"Dhofar Governorate","Wlyt_ID":"Salalah","Road_ID":" ","Latitude":17.051298200000002,"Longitude":54.02171002,"GlobalID":"{8166905B-167D-43B3-AEB4-147C69DC3383}"}},{"type":"Feature","id":23,"geometry":{"type":"Point","coordinates":[182876.17449999973,1887567.5065000001]},"properties":{"OBJECTID":23,"Asset_ID":"CFE26","Name":"مطعم و مقهى بن فاغاش","District_I":" ","Gov_ID":"Dhofar Governorate","Wlyt_ID":"Salalah","Road_ID":" ","Latitude":17.05056372,"Longitude":54.021042710000003,"GlobalID":"{5349A11E-1873-4275-BA5C-A2CEF694B387}"}},{"type":"Feature","id":24,"geometry":{"type":"Point","coordinates":[183005.48099999968,1887319.7927999999]},"properties":{"OBJECTID":24,"Asset_ID":"CFE27","Name":"مقهى","District_I":" ","Gov_ID":"Dhofar Governorate","Wlyt_ID":"Salalah","Road_ID":" ","Latitude":17.048345359999999,"Longitude":54.022291639999999,"GlobalID":"{1A881789-E24F-43E2-BBCC-F46E6E5EB1E8}"}},{"type":"Feature","id":25,"geometry":{"type":"Point","coordinates":[198495.51829999965,1896331.1241999995]},"properties":{"OBJECTID":25,"Asset_ID":"CFE30","Name":"مقهى","District_I":" ","Gov_ID":"Dhofar Governorate","Wlyt_ID":"Salalah","Road_ID":" ","Latitude":17.131783540000001,"Longitude":54.166435290000003,"GlobalID":"{F0DA7BCF-7095-40C9-B120-95CD132300D3}"}},{"type":"Feature","id":26,"geometry":{"type":"Point","coordinates":[198618.87980000023,1896543.6625999995]},"properties":{"OBJECTID":26,"Asset_ID":"CFE31","Name":"مقهى","District_I":" ","Gov_ID":"Dhofar Governorate","Wlyt_ID":"Salalah","Road_ID":" ","Latitude":17.133718640000001,"Longitude":54.16756453,"GlobalID":"{4BC24F06-5F2F-4DE3-9424-38ECA11E6E97}"}},{"type":"Feature","id":27,"geometry":{"type":"Point","coordinates":[198624.32949999999,1896504.5238000005]},"properties":{"OBJECTID":27,"Asset_ID":"CFE32","Name":"مقهى","District_I":" ","Gov_ID":"Dhofar Governorate","Wlyt_ID":"Salalah","Road_ID":" ","Latitude":17.133365999999999,"Longitude":54.167621060000002,"GlobalID":"{1D9C0A5F-DBB6-4D5F-AB44-4931155F1607}"}},{"type":"Feature","id":28,"geometry":{"type":"Point","coordinates":[187162.85130000021,1890473.7835000008]},"properties":{"OBJECTID":28,"Asset_ID":"CFE33","Name":"مقهى","District_I":" ","Gov_ID":"Dhofar Governorate","Wlyt_ID":"Salalah","Road_ID":" ","Latitude":17.077386740000001,"Longitude":54.060860599999998,"GlobalID":"{4522CB1C-0AED-4F97-B824-5164C8AC1714}"}},{"type":"Feature","id":29,"geometry":{"type":"Point","coordinates":[193716.57139999978,1892171.8114]},"properties":{"OBJECTID":29,"Asset_ID":"CFE36","Name":"مقهى","District_I":" ","Gov_ID":"Dhofar Governorate","Wlyt_ID":"Salalah","Road_ID":" ","Latitude":17.093599300000001,"Longitude":54.122140969999997,"GlobalID":"{C9E72447-2592-43F0-9832-0145190DED1A}"}},{"type":"Feature","id":30,"geometry":{"type":"Point","coordinates":[198937.26599999983,1882996.6718000006]},"properties":{"OBJECTID":30,"Asset_ID":"CFE37","Name":"ARMAL CAFE","District_I":"Dahariz al Janubiyya","Gov_ID":"Dhofar Governorate","Wlyt_ID":"Salalah","Road_ID":" ","Latitude":17.011452739999999,"Longitude":54.172398659999999,"GlobalID":"{C2A8E583-CD2F-4946-8380-31A1F0A2D12B}"}},{"type":"Feature","id":31,"geometry":{"type":"Point","coordinates":[198968.98180000018,1883005.9561000001]},"properties":{"OBJECTID":31,"Asset_ID":"CFE38","Name":"Le French","District_I":"Dahariz al Janubiyya","Gov_ID":"Dhofar Governorate","Wlyt_ID":"Salalah","Road_ID":" ","Latitude":17.011540700000001,"Longitude":54.172695019999999,"GlobalID":"{E847EA97-D161-41AB-98A2-DDA1E9225D4E}"}},{"type":"Feature","id":32,"geometry":{"type":"Point","coordinates":[198852.83600000013,1882946.9962000009]},"properties":{"OBJECTID":32,"Asset_ID":"CFE39","Name":"Lazurd Cafe - Dhareez","District_I":"Dahariz al Janubiyya","Gov_ID":"Dhofar Governorate","Wlyt_ID":"Salalah","Road_ID":" ","Latitude":17.01099322,"Longitude":54.171613129999997,"GlobalID":"{05AF7BB8-4399-4EFA-B210-CEA6EB69866C}"}},{"type":"Feature","id":33,"geometry":{"type":"Point","coordinates":[198863.36739999987,1882949.4171999991]},"properties":{"OBJECTID":33,"Asset_ID":"CFE40","Name":"The Crepe Cafe","District_I":"Dahariz al Janubiyya","Gov_ID":"Dhofar Governorate","Wlyt_ID":"Salalah","Road_ID":" ","Latitude":17.01101646,"Longitude":54.171711629999997,"GlobalID":"{90C531F7-1E2D-463C-B594-2293B56EFD01}"}},{"type":"Feature","id":34,"geometry":{"type":"Point","coordinates":[198923.40859999973,1882958.0118000004]},"properties":{"OBJECTID":34,"Asset_ID":"CFE41","Name":"HUROF CAFE SPECIALITY COFFEE","District_I":"Dahariz al Janubiyya","Gov_ID":"Dhofar Governorate","Wlyt_ID":"Salalah","Road_ID":" ","Latitude":17.011101889999999,"Longitude":54.172273869999998,"GlobalID":"{246C2D07-B629-4DDC-8327-7019B50E23B8}"}},{"type":"Feature","id":35,"geometry":{"type":"Point","coordinates":[198933.63740000036,1882958.3145000003]},"properties":{"OBJECTID":35,"Asset_ID":"CFE42","Name":"FROZ The Watefront","District_I":"Dahariz al Janubiyya","Gov_ID":"Dhofar Governorate","Wlyt_ID":"Salalah","Road_ID":" ","Latitude":17.011105950000001,"Longitude":54.17236982,"GlobalID":"{1202F615-82B8-4070-92EB-102E536E4F63}"}},{"type":"Feature","id":36,"geometry":{"type":"Point","coordinates":[197995.69840000011,1882855.9433999993]},"properties":{"OBJECTID":36,"Asset_ID":"CFE43","Name":"Like Cafe","District_I":"Dahariz al Janubiyya","Gov_ID":"Dhofar Governorate","Wlyt_ID":"Salalah","Road_ID":" ","Latitude":17.01005915,"Longitude":54.163582409999997,"GlobalID":"{46E5B754-B6E2-4C6C-830B-DC282B8383DD}"}},{"type":"Feature","id":37,"geometry":{"type":"Point","coordinates":[197984.44450000022,1882855.6596000008]},"properties":{"OBJECTID":37,"Asset_ID":"CFE44","Name":"Kark Albanz","District_I":"Dahariz al Janubiyya","Gov_ID":"Dhofar Governorate","Wlyt_ID":"Salalah","Road_ID":" ","Latitude":17.010055120000001,"Longitude":54.163476850000002,"GlobalID":"{57FE1D12-7D34-41D8-B2E3-B7AD06ADB648}"}},{"type":"Feature","id":38,"geometry":{"type":"Point","coordinates":[198183.73859999981,1882890.2821999993]},"properties":{"OBJECTID":38,"Asset_ID":"CFE45","Name":"CORDELIA CAFE","District_I":"Dahariz al Janubiyya","Gov_ID":"Dhofar Governorate","Wlyt_ID":"Salalah","Road_ID":" ","Latitude":17.010393780000001,"Longitude":54.165342240000001,"GlobalID":"{2B2DE723-4DBB-494D-9B07-F8985FCACB13}"}},{"type":"Feature","id":39,"geometry":{"type":"Point","coordinates":[197718.83270000014,1883927.1440999992]},"properties":{"OBJECTID":39,"Asset_ID":"CFE46","Name":"vienna coffe","District_I":"Dahariz al Janubiyya","Gov_ID":"Dhofar Governorate","Wlyt_ID":"Salalah","Road_ID":" ","Latitude":17.01969411,"Longitude":54.16083854,"GlobalID":"{2678D351-6A9A-40A2-B202-646998C88FDF}"}},{"type":"Feature","id":40,"geometry":{"type":"Point","coordinates":[197689.95660000015,1883983.2225000001]},"properties":{"OBJECTID":40,"Asset_ID":"CFE47","Name":"بومة نايت كافيه","District_I":"Dahariz al Shamaliyya","Gov_ID":"Dhofar Governorate","Wlyt_ID":"Salalah","Road_ID":" ","Latitude":17.02019662,"Longitude":54.160559929999998,"GlobalID":"{026DD3FF-3DC1-436E-8800-15B0F6C93C7E}"}},{"type":"Feature","id":41,"geometry":{"type":"Point","coordinates":[197737.2050999999,1883884.7080000006]},"properties":{"OBJECTID":41,"Asset_ID":"CFE48","Name":"مقهى","District_I":"Dahariz al Janubiyya","Gov_ID":"Dhofar Governorate","Wlyt_ID":"Salalah","Road_ID":" ","Latitude":17.019313390000001,"Longitude":54.16101673,"GlobalID":"{A1DF2CD5-ECA7-45C3-B09E-9AD932937DBA}"}},{"type":"Feature","id":42,"geometry":{"type":"Point","coordinates":[198848.70459999982,1884652.7791000009]},"properties":{"OBJECTID":42,"Asset_ID":"CFE49","Name":"Ompresso","District_I":"Dahariz al Shamaliyya","Gov_ID":"Dhofar Governorate","Wlyt_ID":"Salalah","Road_ID":" ","Latitude":17.02639327,"Longitude":54.171342879999997,"GlobalID":"{D28ABA16-BA5D-4350-A513-6647120291D7}"}},{"type":"Feature","id":43,"geometry":{"type":"Point","coordinates":[198926.36890000012,1884804.4711000007]},"properties":{"OBJECTID":43,"Asset_ID":"CFE50","Name":"Verlè","District_I":"Dahariz al Shamaliyya","Gov_ID":"Dhofar Governorate","Wlyt_ID":"Salalah","Road_ID":" ","Latitude":17.02777296,"Longitude":54.17205113,"GlobalID":"{05805E07-A94D-45CD-A8B5-2181FB4FA39A}"}},{"type":"Feature","id":44,"geometry":{"type":"Point","coordinates":[198926.88839999959,1884808.7569999993]},"properties":{"OBJECTID":44,"Asset_ID":"CFE51","Name":"Sekah Coffee 75","District_I":"Dahariz al Shamaliyya","Gov_ID":"Dhofar Governorate","Wlyt_ID":"Salalah","Road_ID":" ","Latitude":17.027811719999999,"Longitude":54.17205543,"GlobalID":"{969717E8-FA54-4C7B-9014-125420C5CBAC}"}},{"type":"Feature","id":45,"geometry":{"type":"Point","coordinates":[198927.27799999993,1884818.8870999999]},"properties":{"OBJECTID":45,"Asset_ID":"CFE52","Name":"Trazo Salalah","District_I":"Dahariz al Shamaliyya","Gov_ID":"Dhofar Governorate","Wlyt_ID":"Salalah","Road_ID":" ","Latitude":17.02790323,"Longitude":54.172057709999997,"GlobalID":"{511AC7AB-9BD1-4784-9A26-C72E9DF8F578}"}},{"type":"Feature","id":46,"geometry":{"type":"Point","coordinates":[198928.31699999981,1884825.9002999999]},"properties":{"OBJECTID":46,"Asset_ID":"CFE53","Name":"Bascleta","District_I":"Dahariz al Shamaliyya","Gov_ID":"Dhofar Governorate","Wlyt_ID":"Salalah","Road_ID":" ","Latitude":17.02796669,"Longitude":54.172066510000001,"GlobalID":"{E2566C8B-5A06-4732-AD08-C9C333B79C46}"}},{"type":"Feature","id":47,"geometry":{"type":"Point","coordinates":[199036.62430000026,1885066.0929000005]},"properties":{"OBJECTID":47,"Asset_ID":"CFE54","Name":"NUESTRO CAFÉ","District_I":"Dahariz al Shamaliyya","Gov_ID":"Dhofar Governorate","Wlyt_ID":"Salalah","Road_ID":" ","Latitude":17.030149399999999,"Longitude":54.173050330000002,"GlobalID":"{397AA227-E537-4985-B15E-12B6EFAA890A}"}},{"type":"Feature","id":48,"geometry":{"type":"Point","coordinates":[199051.50960000046,1885140.4691000003]},"properties":{"OBJECTID":48,"Asset_ID":"CFE55","Name":"Fursaad","District_I":"Dahariz al Shamaliyya","Gov_ID":"Dhofar Governorate","Wlyt_ID":"Salalah","Road_ID":" ","Latitude":17.03082285,"Longitude":54.173179920000003,"GlobalID":"{5C9BF57E-C4CF-4593-AA74-840FF90A8712}"}},{"type":"Feature","id":49,"geometry":{"type":"Point","coordinates":[199087.16770000011,1885143.9601000007]},"properties":{"OBJECTID":49,"Asset_ID":"CFE56","Name":"khashab cafe","District_I":"Dahariz al Shamaliyya","Gov_ID":"Dhofar Governorate","Wlyt_ID":"Salalah","Road_ID":" ","Latitude":17.030859020000001,"Longitude":54.173514089999998,"GlobalID":"{5DAA4C8A-E9B8-46D8-BDAA-63B506F15187}"}},{"type":"Feature","id":50,"geometry":{"type":"Point","coordinates":[199091.15739999991,1885121.5179999992]},"properties":{"OBJECTID":50,"Asset_ID":"CFE57","Name":"LA BOUGIE CAFE","District_I":"Dahariz al Shamaliyya","Gov_ID":"Dhofar Governorate","Wlyt_ID":"Salalah","Road_ID":" ","Latitude":17.030656919999998,"Longitude":54.173554580000001,"GlobalID":"{7002FB64-ED93-4EEF-977C-332F6475929E}"}},{"type":"Feature","id":51,"geometry":{"type":"Point","coordinates":[198273.62540000025,1885790.0800000001]},"properties":{"OBJECTID":51,"Asset_ID":"CFE58","Name":"Mute Cafe","District_I":"al Sada al Janubiyya","Gov_ID":"Dhofar Governorate","Wlyt_ID":"Salalah","Road_ID":" ","Latitude":17.03658609,"Longitude":54.165791310000003,"GlobalID":"{31B07EAC-BB61-4F81-9425-2A5301064231}"}},{"type":"Feature","id":52,"geometry":{"type":"Point","coordinates":[198226.69369999971,1885790.1766999997]},"properties":{"OBJECTID":52,"Asset_ID":"CFE59","Name":"كرك البنز\r\n","District_I":"al Sada al Janubiyya","Gov_ID":"Dhofar Governorate","Wlyt_ID":"Salalah","Road_ID":" ","Latitude":17.036580820000001,"Longitude":54.165350850000003,"GlobalID":"{E81FD4DD-9EF6-4F6A-B3D5-9640AE8AEE04}"}},{"type":"Feature","id":53,"geometry":{"type":"Point","coordinates":[196571.05979999993,1885873.3622999992]},"properties":{"OBJECTID":53,"Asset_ID":"CFE60","Name":"LOVERA SALALAH","District_I":"al Sada al Janubiyya","Gov_ID":"Dhofar Governorate","Wlyt_ID":"Salalah","Road_ID":" ","Latitude":17.0371144,"Longitude":54.149801549999999,"GlobalID":"{222F2476-9E87-4559-8EDB-EA228E63D0C9}"}},{"type":"Feature","id":54,"geometry":{"type":"Point","coordinates":[196519.04160000011,1885870.2534999996]},"properties":{"OBJECTID":54,"Asset_ID":"CFE61","Name":"روڤانا كافية","District_I":"al Sada al Janubiyya","Gov_ID":"Dhofar Governorate","Wlyt_ID":"Salalah","Road_ID":" ","Latitude":17.037079479999999,"Longitude":54.149313790000001,"GlobalID":"{553F9D9A-6065-4286-B4B2-A90C6A0FE322}"}},{"type":"Feature","id":55,"geometry":{"type":"Point","coordinates":[196537.74330000021,1886026.9327000007]},"properties":{"OBJECTID":55,"Asset_ID":"CFE62","Name":"Eat softie\r\n","District_I":"al Sada al Janubiyya","Gov_ID":"Dhofar Governorate","Wlyt_ID":"Salalah","Road_ID":" ","Latitude":17.03849649,"Longitude":54.149467850000001,"GlobalID":"{BA3D8450-B1FF-4A35-9ECE-8B9CB9773560}"}},{"type":"Feature","id":56,"geometry":{"type":"Point","coordinates":[196545.9720999999,1886026.6832999997]},"properties":{"OBJECTID":56,"Asset_ID":"CFE63","Name":"PATRIA CAFE","District_I":"al Sada al Janubiyya","Gov_ID":"Dhofar Governorate","Wlyt_ID":"Salalah","Road_ID":" ","Latitude":17.038495319999999,"Longitude":54.149545109999998,"GlobalID":"{D576E4FA-4A93-4836-A920-95E306F2B4B2}"}},{"type":"Feature","id":57,"geometry":{"type":"Point","coordinates":[196544.36170000024,1885868.7832999993]},"properties":{"OBJECTID":57,"Asset_ID":"CFE64","Name":"مقهى لفته التركي","District_I":"al Sada al Janubiyya","Gov_ID":"Dhofar Governorate","Wlyt_ID":"Salalah","Road_ID":" ","Latitude":17.037069549999998,"Longitude":54.149551619999997,"GlobalID":"{C4A8920C-33D6-425A-B379-A47842E42A0D}"}},{"type":"Feature","id":58,"geometry":{"type":"Point","coordinates":[190178.09970000014,1883769.1207999997]},"properties":{"OBJECTID":58,"Asset_ID":"CFE71","Name":"Tea station","District_I":"Salalah al Jadida","Gov_ID":"Dhofar Governorate","Wlyt_ID":"Salalah","Road_ID":" ","Latitude":17.017266960000001,"Longitude":54.090100280000001,"GlobalID":"{FBBA1F86-5AB4-4F14-9D0B-9B38ADAB6785}"}},{"type":"Feature","id":59,"geometry":{"type":"Point","coordinates":[190113.9422000004,1883784.3158999998]},"properties":{"OBJECTID":59,"Asset_ID":"CFE72","Name":"Fo 7 coffee","District_I":"Salalah al Jadida","Gov_ID":"Dhofar Governorate","Wlyt_ID":"Salalah","Road_ID":" ","Latitude":17.017395520000001,"Longitude":54.089496140000001,"GlobalID":"{861F6A00-68B3-42E1-8FCE-97D80E18B08C}"}},{"type":"Feature","id":60,"geometry":{"type":"Point","coordinates":[190031.08299999963,1883822.8882999998]},"properties":{"OBJECTID":60,"Asset_ID":"CFE73","Name":"كرك البنز","District_I":"Salalah al Jadida","Gov_ID":"Dhofar Governorate","Wlyt_ID":"Salalah","Road_ID":" ","Latitude":17.017732609999999,"Longitude":54.088713259999999,"GlobalID":"{9402CEDF-4A59-462D-8164-7846EFE86CE2}"}},{"type":"Feature","id":61,"geometry":{"type":"Point","coordinates":[189953.21980000008,1883847.6764000002]},"properties":{"OBJECTID":61,"Asset_ID":"CFE74","Name":"كرك الزعفران","District_I":"Salalah al Jadida","Gov_ID":"Dhofar Governorate","Wlyt_ID":"Salalah","Road_ID":" ","Latitude":17.017812670000001,"Longitude":54.087834399999998,"GlobalID":"{8F25A5D9-9A2B-4ED8-AF46-37C319B8D110}"}},{"type":"Feature","id":62,"geometry":{"type":"Point","coordinates":[189771.98570000008,1883809.2515999991]},"properties":{"OBJECTID":62,"Asset_ID":"CFE75","Name":"شاي مضبوط","District_I":"Salalah al Jadida","Gov_ID":"Dhofar Governorate","Wlyt_ID":"Salalah","Road_ID":" ","Latitude":17.017574669999998,"Longitude":54.086283960000003,"GlobalID":"{420A4C5B-C928-4E72-B0AC-6AEB55169B04}"}},{"type":"Feature","id":63,"geometry":{"type":"Point","coordinates":[189556.91540000029,1883824.6962000001]},"properties":{"OBJECTID":63,"Asset_ID":"CFE76","Name":"شاي المزاج الممتاز","District_I":"Salalah al Jadida","Gov_ID":"Dhofar Governorate","Wlyt_ID":"Salalah","Road_ID":" ","Latitude":17.01768517,"Longitude":54.084263730000004,"GlobalID":"{81116AAF-B195-4444-853F-57036AE97183}"}},{"type":"Feature","id":64,"geometry":{"type":"Point","coordinates":[189479.78100000042,1883781.9729999993]},"properties":{"OBJECTID":64,"Asset_ID":"CFE77","Name":"JUICES","District_I":"Salalah al Jadida","Gov_ID":"Dhofar Governorate","Wlyt_ID":"Salalah","Road_ID":" ","Latitude":17.017289089999998,"Longitude":54.08354593,"GlobalID":"{3BA552D9-3D48-4C3E-A934-CBF1D0E0CFAC}"}},{"type":"Feature","id":65,"geometry":{"type":"Point","coordinates":[189409.96779999975,1883808.4081999995]},"properties":{"OBJECTID":65,"Asset_ID":"CFE78","Name":"Internet cafe","District_I":"Salalah al Jadida","Gov_ID":"Dhofar Governorate","Wlyt_ID":"Salalah","Road_ID":" ","Latitude":17.01751835,"Longitude":54.082887149999998,"GlobalID":"{B0173FE0-2B4C-4E7A-A792-3D18E78F3A11}"}},{"type":"Feature","id":66,"geometry":{"type":"Point","coordinates":[189346.91019999981,1883804.0567000005]},"properties":{"OBJECTID":66,"Asset_ID":"CFE79","Name":"HDH café","District_I":"Salalah al Jadida","Gov_ID":"Dhofar Governorate","Wlyt_ID":"Salalah","Road_ID":" ","Latitude":17.01747057,"Longitude":54.082296069999998,"GlobalID":"{815FB4F6-DC8D-4C49-9E80-77B5CB61690F}"}},{"type":"Feature","id":67,"geometry":{"type":"Point","coordinates":[189310.54569999967,1883800.5501000006]},"properties":{"OBJECTID":67,"Asset_ID":"CFE80","Name":"مقهى","District_I":"Salalah al Jadida","Gov_ID":"Dhofar Governorate","Wlyt_ID":"Salalah","Road_ID":" ","Latitude":17.01743402,"Longitude":54.08195534,"GlobalID":"{DC74E150-729B-4709-A9AF-8E6A31F22DCD}"}},{"type":"Feature","id":68,"geometry":{"type":"Point","coordinates":[189131.96980000008,1883788.4718999993]},"properties":{"OBJECTID":68,"Asset_ID":"CFE81","Name":"مقهى الانترنت","District_I":"Salalah al Jadida","Gov_ID":"Dhofar Governorate","Wlyt_ID":"Salalah","Road_ID":" ","Latitude":17.01730092,"Longitude":54.080281399999997,"GlobalID":"{6EE28E4C-7F53-41A3-BA78-455EC087B878}"}},{"type":"Feature","id":69,"geometry":{"type":"Point","coordinates":[188851.96279999986,1883736.0031000003]},"properties":{"OBJECTID":69,"Asset_ID":"CFE82","Name":"Tawa & Karak","District_I":"Salalah al Jadida","Gov_ID":"Dhofar Governorate","Wlyt_ID":"Salalah","Road_ID":" ","Latitude":17.016789500000002,"Longitude":54.077661380000002,"GlobalID":"{2CAF1AB9-0551-45B4-9A25-1585F4D71826}"}},{"type":"Feature","id":70,"geometry":{"type":"Point","coordinates":[188821.05300000031,1883734.0549999997]},"properties":{"OBJECTID":70,"Asset_ID":"CFE83","Name":"TopTea","District_I":"Salalah al Jadida","Gov_ID":"Dhofar Governorate","Wlyt_ID":"Salalah","Road_ID":" ","Latitude":17.016767739999999,"Longitude":54.077371620000001,"GlobalID":"{A27D4BFB-D045-4672-876D-4E181B51B323}"}},{"type":"Feature","id":71,"geometry":{"type":"Point","coordinates":[188666.37380000018,1883696.2618000004]},"properties":{"OBJECTID":71,"Asset_ID":"CFE84","Name":"Tea Time cafe","District_I":"Salalah al Jadida","Gov_ID":"Dhofar Governorate","Wlyt_ID":"Salalah","Road_ID":" ","Latitude":17.016405689999999,"Longitude":54.075925529999999,"GlobalID":"{C970430B-AC1A-4D83-A1B1-646A1679666B}"}},{"type":"Feature","id":72,"geometry":{"type":"Point","coordinates":[189576.52630000003,1884061.4657000005]},"properties":{"OBJECTID":72,"Asset_ID":"CFE85","Name":"ركن حلا","District_I":"Salalah al Jadida","Gov_ID":"Dhofar Governorate","Wlyt_ID":"Salalah","Road_ID":" ","Latitude":17.019825310000002,"Longitude":54.084414619999997,"GlobalID":"{144B26E5-E32E-49EC-B648-E3D9FC1473AF}"}},{"type":"Feature","id":73,"geometry":{"type":"Point","coordinates":[189624.23039999977,1883949.5878999997]},"properties":{"OBJECTID":73,"Asset_ID":"CFE86","Name":"REEZ","District_I":"Salalah al Jadida","Gov_ID":"Dhofar Governorate","Wlyt_ID":"Salalah","Road_ID":" ","Latitude":17.018821719999998,"Longitude":54.084877900000002,"GlobalID":"{B119C1F2-091E-4B46-AA8A-C6C9AF66D794}"}},{"type":"Feature","id":74,"geometry":{"type":"Point","coordinates":[189128.59310000017,1884153.1563000008]},"properties":{"OBJECTID":74,"Asset_ID":"CFE89","Name":"TEA DEIRA","District_I":"Salalah al Jadida","Gov_ID":"Dhofar Governorate","Wlyt_ID":"Salalah","Road_ID":" ","Latitude":17.020592740000001,"Longitude":54.080198639999999,"GlobalID":"{9DFDB3D4-280F-4A02-AFC2-69F539DFAD5D}"}},{"type":"Feature","id":75,"geometry":{"type":"Point","coordinates":[189157.81460000016,1883855.6163999997]},"properties":{"OBJECTID":75,"Asset_ID":"CFE90","Name":"مقهى","District_I":"Salalah al Jadida","Gov_ID":"Dhofar Governorate","Wlyt_ID":"Salalah","Road_ID":" ","Latitude":17.017910570000002,"Longitude":54.08051451,"GlobalID":"{16B181DD-449B-45A2-8E02-055ADADB39CC}"}},{"type":"Feature","id":76,"geometry":{"type":"Point","coordinates":[189188.1166000003,1883649.4813999999]},"properties":{"OBJECTID":76,"Asset_ID":"CFE91","Name":"House of tea","District_I":"Salalah al Jadida","Gov_ID":"Dhofar Governorate","Wlyt_ID":"Salalah","Road_ID":" ","Latitude":17.016053719999999,"Longitude":54.080827710000001,"GlobalID":"{DE64D3EB-E50B-4EAF-AA42-E953D3275600}"}},{"type":"Feature","id":77,"geometry":{"type":"Point","coordinates":[189183.54509999976,1883543.5878999997]},"properties":{"OBJECTID":77,"Asset_ID":"CFE92","Name":"Tea break","District_I":"Salalah al Jadida","Gov_ID":"Dhofar Governorate","Wlyt_ID":"Salalah","Road_ID":" ","Latitude":17.01509712,"Longitude":54.080799640000002,"GlobalID":"{C6A0A5A8-91E5-4888-AD76-4EB4E990A3D7}"}},{"type":"Feature","id":78,"geometry":{"type":"Point","coordinates":[189203.24430000037,1883455.2324000001]},"properties":{"OBJECTID":78,"Asset_ID":"CFE94","Name":"ice cream shop","District_I":"Salalah al Jadida","Gov_ID":"Dhofar Governorate","Wlyt_ID":"Salalah","Road_ID":" ","Latitude":17.014302130000001,"Longitude":54.080996849999998,"GlobalID":"{9FD40C70-D318-4951-9D29-70B49AA70DF1}"}},{"type":"Feature","id":79,"geometry":{"type":"Point","coordinates":[189237.03729999997,1883306.3819999993]},"properties":{"OBJECTID":79,"Asset_ID":"CFE95","Name":"Tareem Tea","District_I":"Salalah al Jadida","Gov_ID":"Dhofar Governorate","Wlyt_ID":"Salalah","Road_ID":" ","Latitude":17.012962890000001,"Longitude":54.081334769999998,"GlobalID":"{827FDAC3-AEB3-4497-92A4-13E943B564AF}"}},{"type":"Feature","id":80,"geometry":{"type":"Point","coordinates":[189240.02440000046,1883293.0050000008]},"properties":{"OBJECTID":80,"Asset_ID":"CFE96","Name":"شاي المزاج الممتاز","District_I":"Salalah al Jadida","Gov_ID":"Dhofar Governorate","Wlyt_ID":"Salalah","Road_ID":" ","Latitude":17.01284253,"Longitude":54.081364669999999,"GlobalID":"{00517CDC-9858-45E9-9078-D188DAEE076F}"}},{"type":"Feature","id":81,"geometry":{"type":"Point","coordinates":[189964.20720000006,1883385.4962000009]},"properties":{"OBJECTID":81,"Asset_ID":"CFE98","Name":"مقهى","District_I":"Salalah al Gharbiyya","Gov_ID":"Dhofar Governorate","Wlyt_ID":"Salalah","Road_ID":" ","Latitude":17.01389284,"Longitude":54.088603300000003,"GlobalID":"{8744E655-C0F3-4E3D-A35B-B0DF9D3BB915}"}},{"type":"Feature","id":82,"geometry":{"type":"Point","coordinates":[189710.8152999999,1883382.7475000005]},"properties":{"OBJECTID":82,"Asset_ID":"CFE99","Name":"مقهى سكر بس","District_I":"Salalah al Jadida","Gov_ID":"Dhofar Governorate","Wlyt_ID":"Salalah","Road_ID":" ","Latitude":17.01371606,"Longitude":54.085769599999999,"GlobalID":"{DFEB80F7-29C3-4581-8F3D-449F7F41AE8F}"}},{"type":"Feature","id":83,"geometry":{"type":"Point","coordinates":[189683.80169999972,1883524.3094999995]},"properties":{"OBJECTID":83,"Asset_ID":"CFE100","Name":"TEA TAKE","District_I":"Salalah al Jadida","Gov_ID":"Dhofar Governorate","Wlyt_ID":"Salalah","Road_ID":" ","Latitude":17.01499042,"Longitude":54.085496339999999,"GlobalID":"{EE0415F8-21C4-4F22-ACD7-276EF88238DC}"}},{"type":"Feature","id":84,"geometry":{"type":"Point","coordinates":[189649.25540000014,1883529.2446999997]},"properties":{"OBJECTID":84,"Asset_ID":"CFE101","Name":"Al Ameer Cafe","District_I":"Salalah al Jadida","Gov_ID":"Dhofar Governorate","Wlyt_ID":"Salalah","Road_ID":" ","Latitude":17.015030329999998,"Longitude":54.08517149,"GlobalID":"{B2E8CB71-96FD-43FA-80F9-0044D1B1A63A}"}},{"type":"Feature","id":85,"geometry":{"type":"Point","coordinates":[189660.96019999962,1883663.0548]},"properties":{"OBJECTID":85,"Asset_ID":"CFE102","Name":"باشن رمان","District_I":"Salalah al Jadida","Gov_ID":"Dhofar Governorate","Wlyt_ID":"Salalah","Road_ID":" ","Latitude":17.016239909999999,"Longitude":54.085262610000001,"GlobalID":"{4E5B61F7-966E-44AA-A4F7-247619193033}"}},{"type":"Feature","id":86,"geometry":{"type":"Point","coordinates":[189661.36610000022,1883658.7932999991]},"properties":{"OBJECTID":86,"Asset_ID":"CFE103","Name":"Tea center","District_I":"Salalah al Jadida","Gov_ID":"Dhofar Governorate","Wlyt_ID":"Salalah","Road_ID":" ","Latitude":17.01620149,"Longitude":54.085267020000003,"GlobalID":"{88F76345-E586-40F2-86FB-CDA0894F2CEC}"}},{"type":"Feature","id":87,"geometry":{"type":"Point","coordinates":[189618.99490000028,1883710.0284000002]},"properties":{"OBJECTID":87,"Asset_ID":"CFE104","Name":"الزهراء","District_I":"Salalah al Jadida","Gov_ID":"Dhofar Governorate","Wlyt_ID":"Salalah","Road_ID":" ","Latitude":17.016658329999999,"Longitude":54.084862270000002,"GlobalID":"{C9061182-6645-4427-8446-32ACE190225D}"}},{"type":"Feature","id":88,"geometry":{"type":"Point","coordinates":[189646.00850000046,1883754.4451000001]},"properties":{"OBJECTID":88,"Asset_ID":"CFE105","Name":"دريم كريم","District_I":"Salalah al Jadida","Gov_ID":"Dhofar Governorate","Wlyt_ID":"Salalah","Road_ID":" ","Latitude":17.01706295,"Longitude":54.085109539999998,"GlobalID":"{31A9D5D3-D7C6-4292-8D55-315C6BA6118F}"}},{"type":"Feature","id":89,"geometry":{"type":"Point","coordinates":[189609.51410000026,1883766.1337000001]},"properties":{"OBJECTID":89,"Asset_ID":"CFE106","Name":"boba tea salalah","District_I":"Salalah al Jadida","Gov_ID":"Dhofar Governorate","Wlyt_ID":"Salalah","Road_ID":" ","Latitude":17.01716356,"Longitude":54.084765470000001,"GlobalID":"{C6904030-CA7E-4E04-A3F3-B7C9BB933252}"}},{"type":"Feature","id":90,"geometry":{"type":"Point","coordinates":[189316.90940000024,1883167.5473999996]},"properties":{"OBJECTID":90,"Asset_ID":"CFE107","Name":"LAMOURA CAFE","District_I":"Salalah al Gharbiyya","Gov_ID":"Dhofar Governorate","Wlyt_ID":"Salalah","Road_ID":" ","Latitude":17.01172029,"Longitude":54.08210364,"GlobalID":"{C6FFDBB0-9E03-494F-94A8-38C1E5995451}"}},{"type":"Feature","id":91,"geometry":{"type":"Point","coordinates":[188317.78560000006,1882903.4986000005]},"properties":{"OBJECTID":91,"Asset_ID":"CFE108","Name":"سواليف كرك","District_I":"al Wadi","Gov_ID":"Dhofar Governorate","Wlyt_ID":"Salalah","Road_ID":" ","Latitude":17.00920181,"Longitude":54.072765959999998,"GlobalID":"{77EC4931-6749-4C79-9AC9-49C37C1AC72D}"}},{"type":"Feature","id":92,"geometry":{"type":"Point","coordinates":[187395.98900000006,1882558.2959000003]},"properties":{"OBJECTID":92,"Asset_ID":"CFE109","Name":"وقت الشاي ارشفة","District_I":"al Wadi","Gov_ID":"Dhofar Governorate","Wlyt_ID":"Salalah","Road_ID":" ","Latitude":17.00596079,"Longitude":54.064165539999998,"GlobalID":"{18E14C3E-4731-4DA7-8570-EB2822734272}"}},{"type":"Feature","id":93,"geometry":{"type":"Point","coordinates":[188341.36400000006,1883003.4443999995]},"properties":{"OBJECTID":93,"Asset_ID":"CFE110","Name":"tea 10","District_I":"al Wadi","Gov_ID":"Dhofar Governorate","Wlyt_ID":"Salalah","Road_ID":" ","Latitude":17.010107269999999,"Longitude":54.072973159999997,"GlobalID":"{D5845015-5527-425B-8618-BB5E0CC01CD6}"}},{"type":"Feature","id":94,"geometry":{"type":"Point","coordinates":[188376.43149999995,1883286.4221000001]},"properties":{"OBJECTID":94,"Asset_ID":"CFE111","Name":"جراند كافيه ومطعم","District_I":"Salalah al Jadida","Gov_ID":"Dhofar Governorate","Wlyt_ID":"Salalah","Road_ID":" ","Latitude":17.012666639999999,"Longitude":54.073262479999997,"GlobalID":"{D25BF872-47B2-4D07-B226-2330A6FDEC71}"}},{"type":"Feature","id":95,"geometry":{"type":"Point","coordinates":[188493.12280000001,1883046.3754999992]},"properties":{"OBJECTID":95,"Asset_ID":"CFE113","Name":"ريلاكس كافيه","District_I":"Salalah al Jadida","Gov_ID":"Dhofar Governorate","Wlyt_ID":"Salalah","Road_ID":" ","Latitude":17.01051533,"Longitude":54.074391069999997,"GlobalID":"{2E087A8A-3702-40C2-A529-274D716511B0}"}},{"type":"Feature","id":96,"geometry":{"type":"Point","coordinates":[188461.04399999976,1883004.6862000003]},"properties":{"OBJECTID":96,"Asset_ID":"CFE114","Name":"PURE coffee","District_I":"Salalah al Jadida","Gov_ID":"Dhofar Governorate","Wlyt_ID":"Salalah","Road_ID":" ","Latitude":17.01013464,"Longitude":54.074095929999999,"GlobalID":"{C18FBAEF-6F79-4E18-AD7D-0A2C1E60F436}"}},{"type":"Feature","id":97,"geometry":{"type":"Point","coordinates":[188492.82660000026,1883060.1680999994]},"properties":{"OBJECTID":97,"Asset_ID":"CFE115","Name":"cafe","District_I":"Salalah al Jadida","Gov_ID":"Dhofar Governorate","Wlyt_ID":"Salalah","Road_ID":" ","Latitude":17.010639810000001,"Longitude":54.074386359999998,"GlobalID":"{8FDE39B4-094C-4851-8341-D80E1B0E302A}"}},{"type":"Feature","id":98,"geometry":{"type":"Point","coordinates":[188688.4523,1884164.4552999996]},"properties":{"OBJECTID":98,"Asset_ID":"CFE116","Name":"Xo Cafe","District_I":"Salalah al Jadida","Gov_ID":"Dhofar Governorate","Wlyt_ID":"Salalah","Road_ID":" ","Latitude":17.020635380000002,"Longitude":54.076067020000004,"GlobalID":"{24B7224F-49F6-48D2-88FE-10F2126D5982}"}},{"type":"Feature","id":99,"geometry":{"type":"Point","coordinates":[188845.74969999958,1884180.6945999991]},"properties":{"OBJECTID":99,"Asset_ID":"CFE117","Name":"KARAK BADAR","District_I":"Salalah al Jadida","Gov_ID":"Dhofar Governorate","Wlyt_ID":"Salalah","Road_ID":" ","Latitude":17.02080321,"Longitude":54.077540730000003,"GlobalID":"{333EBEA4-4082-4B20-8620-D7B72EA574CD}"}},{"type":"Feature","id":100,"geometry":{"type":"Point","coordinates":[188866.63850000035,1884183.1569999997]},"properties":{"OBJECTID":100,"Asset_ID":"CFE118","Name":"MOIN Cafe","District_I":"Salalah al Jadida","Gov_ID":"Dhofar Governorate","Wlyt_ID":"Salalah","Road_ID":" ","Latitude":17.020828259999998,"Longitude":54.077736399999999,"GlobalID":"{B121C0E6-085E-4191-828D-983BB323636D}"}},{"type":"Feature","id":101,"geometry":{"type":"Point","coordinates":[188900.18640000001,1884187.0125999991]},"properties":{"OBJECTID":101,"Asset_ID":"CFE119","Name":"Patria Cafe","District_I":"Salalah al Jadida","Gov_ID":"Dhofar Governorate","Wlyt_ID":"Salalah","Road_ID":" ","Latitude":17.020867590000002,"Longitude":54.078050650000002,"GlobalID":"{530B321D-6026-4161-9884-27CE49F66BEA}"}},{"type":"Feature","id":102,"geometry":{"type":"Point","coordinates":[188944.32880000025,1883739.0004999992]},"properties":{"OBJECTID":102,"Asset_ID":"CFE120","Name":"بن العتيق","District_I":"Salalah al Jadida","Gov_ID":"Dhofar Governorate","Wlyt_ID":"Salalah","Road_ID":" ","Latitude":17.016829019999999,"Longitude":54.078527649999998,"GlobalID":"{25D45893-34B9-45E6-8E05-EE2D98A71138}"}},{"type":"Feature","id":103,"geometry":{"type":"Point","coordinates":[186840.47620000038,1883396.4086000007]},"properties":{"OBJECTID":103,"Asset_ID":"CFE121","Name":"roob berry","District_I":"al Wadi","Gov_ID":"Dhofar Governorate","Wlyt_ID":"Salalah","Road_ID":" ","Latitude":17.013451620000001,"Longitude":54.058835219999999,"GlobalID":"{E96CCDAA-0079-44CA-970B-42D4DD4FF3AE}"}},{"type":"Feature","id":104,"geometry":{"type":"Point","coordinates":[187047.7536000004,1883847.2619000003]},"properties":{"OBJECTID":104,"Asset_ID":"CFE122","Name":"مرضوف وشاهي","District_I":"al Wadi","Gov_ID":"Dhofar Governorate","Wlyt_ID":"Salalah","Road_ID":" ","Latitude":17.017549859999999,"Longitude":54.060716530000001,"GlobalID":"{E1ADB1B0-DCD6-4AC5-9973-C51EA0FB15DE}"}},{"type":"Feature","id":105,"geometry":{"type":"Point","coordinates":[187442.70189999975,1884098.9887000006]},"properties":{"OBJECTID":105,"Asset_ID":"CFE123","Name":"ان مور كرك و كوفي","District_I":"al Wadi","Gov_ID":"Dhofar Governorate","Wlyt_ID":"Salalah","Road_ID":" ","Latitude":17.019875890000002,"Longitude":54.064386929999998,"GlobalID":"{85258203-56DB-43BE-8FB7-9EE120463E88}"}},{"type":"Feature","id":106,"geometry":{"type":"Point","coordinates":[187693.38860000018,1884214.0252999999]},"properties":{"OBJECTID":106,"Asset_ID":"CFE124","Name":"XO cafe","District_I":"al Wadi","Gov_ID":"Dhofar Governorate","Wlyt_ID":"Salalah","Road_ID":" ","Latitude":17.020948359999998,"Longitude":54.066723000000003,"GlobalID":"{5E433FE9-A22C-4687-A0A9-B17E96D5BB32}"}},{"type":"Feature","id":107,"geometry":{"type":"Point","coordinates":[187712.83839999977,1884222.3372000009]},"properties":{"OBJECTID":107,"Asset_ID":"CFE125","Name":"كنافة طيبة","District_I":"al Wadi","Gov_ID":"Dhofar Governorate","Wlyt_ID":"Salalah","Road_ID":" ","Latitude":17.021026030000002,"Longitude":54.066904340000001,"GlobalID":"{F17BAF16-9FE3-488F-81C7-10F163DD8268}"}},{"type":"Feature","id":108,"geometry":{"type":"Point","coordinates":[187743.09370000008,1884233.8906999994]},"properties":{"OBJECTID":108,"Asset_ID":"CFE126","Name":"تصبيرة","District_I":"al Wadi","Gov_ID":"Dhofar Governorate","Wlyt_ID":"Salalah","Road_ID":" ","Latitude":17.021134419999999,"Longitude":54.06718661,"GlobalID":"{ECA745AF-EBFE-4022-9C4F-9567FC9D0191}"}},{"type":"Feature","id":109,"geometry":{"type":"Point","coordinates":[187934.10109999962,1884204.8822000008]},"properties":{"OBJECTID":109,"Asset_ID":"CFE127","Name":"The Espresso Lounge","District_I":"al Wadi","Gov_ID":"Dhofar Governorate","Wlyt_ID":"Salalah","Road_ID":" ","Latitude":17.0208984,"Longitude":54.068982980000001,"GlobalID":"{22ACE0CD-AC77-47DE-858F-891FA5502998}"}},{"type":"Feature","id":110,"geometry":{"type":"Point","coordinates":[187941.76169999968,1884296.3903000001]},"properties":{"OBJECTID":110,"Asset_ID":"CFE128","Name":"Tea Time Al Wadi","District_I":"al Wadi","Gov_ID":"Dhofar Governorate","Wlyt_ID":"Salalah","Road_ID":" ","Latitude":17.021725539999998,"Longitude":54.069041990000002,"GlobalID":"{E7C305FC-9EAD-49B8-A2FB-FE6CD12AF83E}"}},{"type":"Feature","id":111,"geometry":{"type":"Point","coordinates":[187988.0290000001,1884315.4655000009]},"properties":{"OBJECTID":111,"Asset_ID":"CFE129","Name":"WATAN CAFE","District_I":"al Wadi","Gov_ID":"Dhofar Governorate","Wlyt_ID":"Salalah","Road_ID":" ","Latitude":17.021903999999999,"Longitude":54.069473449999997,"GlobalID":"{8115917D-FF7C-423C-ABA5-8CE95DF536FF}"}},{"type":"Feature","id":112,"geometry":{"type":"Point","coordinates":[187964.28660000023,1884239.7737000007]},"properties":{"OBJECTID":112,"Asset_ID":"CFE130","Name":"Cinnaroll Cafe\r\n","District_I":"al Wadi","Gov_ID":"Dhofar Governorate","Wlyt_ID":"Salalah","Road_ID":" ","Latitude":17.02121747,"Longitude":54.069261310000002,"GlobalID":"{8DFA7B25-AAF6-4C4F-8ABB-365DD0FFFC6D}"}},{"type":"Feature","id":113,"geometry":{"type":"Point","coordinates":[187649.50179999974,1883731.6861000005]},"properties":{"OBJECTID":113,"Asset_ID":"CFE131","Name":"شاي موزون","District_I":"al Wadi","Gov_ID":"Dhofar Governorate","Wlyt_ID":"Salalah","Road_ID":" ","Latitude":17.016588039999998,"Longitude":54.066379079999997,"GlobalID":"{CAB57E7A-B783-4A4C-9636-0124252AEA51}"}},{"type":"Feature","id":114,"geometry":{"type":"Point","coordinates":[197671.93939999957,1885557.8740999997]},"properties":{"OBJECTID":114,"Asset_ID":"CFE132","Name":"رمق كافيه","District_I":"Dahariz al Shamaliyya","Gov_ID":"Dhofar Governorate","Wlyt_ID":"Salalah","Road_ID":" ","Latitude":17.034410780000002,"Longitude":54.160176210000003,"GlobalID":"{9F4D921C-C408-4277-96BF-C73D1678F606}"}},{"type":"Feature","id":115,"geometry":{"type":"Point","coordinates":[197590.13439999986,1885562.9473000001]},"properties":{"OBJECTID":115,"Asset_ID":"CFE133","Name":"بلسمينا كافيه","District_I":"Dahariz al Shamaliyya","Gov_ID":"Dhofar Governorate","Wlyt_ID":"Salalah","Road_ID":" ","Latitude":17.034445850000001,"Longitude":54.159407790000003,"GlobalID":"{D761A0EA-B490-4445-82CE-4C406B3F52AF}"}},{"type":"Feature","id":116,"geometry":{"type":"Point","coordinates":[197591.79030000046,1885587.3476999998]},"properties":{"OBJECTID":116,"Asset_ID":"CFE134","Name":"Momo mania","District_I":"Dahariz al Shamaliyya","Gov_ID":"Dhofar Governorate","Wlyt_ID":"Salalah","Road_ID":" ","Latitude":17.03466637,"Longitude":54.159420009999998,"GlobalID":"{A6DEA801-C9BD-4927-A146-2704AA559899}"}},{"type":"Feature","id":117,"geometry":{"type":"Point","coordinates":[197669.71430000011,1885596.3090000004]},"properties":{"OBJECTID":117,"Asset_ID":"CFE136","Name":"ROR coffee roastery","District_I":"Dahariz al Shamaliyya","Gov_ID":"Dhofar Governorate","Wlyt_ID":"Salalah","Road_ID":" ","Latitude":17.034757500000001,"Longitude":54.160150090000002,"GlobalID":"{84F80126-B256-47A1-B950-4345B6871B9E}"}},{"type":"Feature","id":118,"geometry":{"type":"Point","coordinates":[197660.23350000009,1885600.4649]},"properties":{"OBJECTID":118,"Asset_ID":"CFE137","Name":"Dolce Black Cafe","District_I":"Dahariz al Shamaliyya","Gov_ID":"Dhofar Governorate","Wlyt_ID":"Salalah","Road_ID":" ","Latitude":17.03479377,"Longitude":54.160060540000003,"GlobalID":"{7971905B-84C2-41F7-849C-C55F1FB64BAF}"}},{"type":"Feature","id":119,"geometry":{"type":"Point","coordinates":[197606.33609999996,1885605.2703000009]},"properties":{"OBJECTID":119,"Asset_ID":"CFE140","Name":"Jinen first cafe","District_I":"Dahariz al Shamaliyya","Gov_ID":"Dhofar Governorate","Wlyt_ID":"Salalah","Road_ID":" ","Latitude":17.03483009,"Longitude":54.159554069999999,"GlobalID":"{9EB00841-188E-4505-B002-468CF883DEC3}"}},{"type":"Feature","id":120,"geometry":{"type":"Point","coordinates":[197595.20760000031,1885603.6468000002]},"properties":{"OBJECTID":120,"Asset_ID":"CFE141","Name":"Latea","District_I":"Dahariz al Shamaliyya","Gov_ID":"Dhofar Governorate","Wlyt_ID":"Salalah","Road_ID":" ","Latitude":17.034813969999998,"Longitude":54.159449850000001,"GlobalID":"{224FEB8B-F577-42E4-83FD-A43B19622E74}"}},{"type":"Feature","id":121,"geometry":{"type":"Point","coordinates":[197707.22329999972,1884585.3585999999]},"properties":{"OBJECTID":121,"Asset_ID":"CFE142","Name":"Ravenna Konafa","District_I":"Dahariz al Shamaliyya","Gov_ID":"Dhofar Governorate","Wlyt_ID":"Salalah","Road_ID":" ","Latitude":17.025635189999999,"Longitude":54.160639920000001,"GlobalID":"{47860902-CA37-406D-BE3D-4EBA81672240}"}},{"type":"Feature","id":122,"geometry":{"type":"Point","coordinates":[197401.00629999954,1884592.2580999993]},"properties":{"OBJECTID":122,"Asset_ID":"CFE143","Name":"VRDEMELA CAFE","District_I":"Dahariz al Shamaliyya","Gov_ID":"Dhofar Governorate","Wlyt_ID":"Salalah","Road_ID":" ","Latitude":17.02565731,"Longitude":54.157765329999997,"GlobalID":"{55397982-3A38-458F-A8D5-25ED3C191392}"}},{"type":"Feature","id":123,"geometry":{"type":"Point","coordinates":[197345.99199999962,1884593.2139999997]},"properties":{"OBJECTID":123,"Asset_ID":"CFE144","Name":"Tea Time Modern","District_I":"Dahariz al Shamaliyya","Gov_ID":"Dhofar Governorate","Wlyt_ID":"Salalah","Road_ID":" ","Latitude":17.025658719999999,"Longitude":54.157248930000002,"GlobalID":"{2D798FE6-1DC8-4871-8275-2E17E83E9918}"}},{"type":"Feature","id":124,"geometry":{"type":"Point","coordinates":[197305.01429999992,1884594.9594999999]},"properties":{"OBJECTID":124,"Asset_ID":"CFE145","Name":"dhariz","District_I":"Dahariz al Shamaliyya","Gov_ID":"Dhofar Governorate","Wlyt_ID":"Salalah","Road_ID":" ","Latitude":17.025669099999998,"Longitude":54.156864140000003,"GlobalID":"{EE8A5031-46AB-4CE3-9D4A-EC3AE03737EF}"}},{"type":"Feature","id":125,"geometry":{"type":"Point","coordinates":[198291.11419999972,1884271.7995999996]},"properties":{"OBJECTID":125,"Asset_ID":"CFE146","Name":"Breath Cafe","District_I":"Dahariz al Shamaliyya","Gov_ID":"Dhofar Governorate","Wlyt_ID":"Salalah","Road_ID":" ","Latitude":17.022880730000001,"Longitude":54.166162020000002,"GlobalID":"{F1379852-3FCE-41B7-902A-B6F13BDF68C9}"}},{"type":"Feature","id":126,"geometry":{"type":"Point","coordinates":[198914.95129999984,1882956.4783999994]},"properties":{"OBJECTID":126,"Asset_ID":"CFE148","Name":"Saffron Tea House","District_I":"Dahariz al Janubiyya","Gov_ID":"2","Wlyt_ID":"Salalah","Road_ID":" ","Latitude":17.011086939999998,"Longitude":54.17219472,"GlobalID":"{8657D2E6-9A76-4A3C-ADBE-A4E9170B1110}"}},{"type":"Feature","id":127,"geometry":{"type":"Point","coordinates":[198259.30860000011,1884256.3073999994]},"properties":{"OBJECTID":127,"Asset_ID":"CFE149","Name":"مقهى و معصرة فواكه","District_I":"Dahariz al Shamaliyya","Gov_ID":"2","Wlyt_ID":"Salalah","Road_ID":" ","Latitude":17.022736699999999,"Longitude":54.165865650000001,"GlobalID":"{E4462796-A8A5-4374-AAD4-13B3BC73C85D}"}},{"type":"Feature","id":128,"geometry":{"type":"Point","coordinates":[198251.21810000017,1884249.2281999998]},"properties":{"OBJECTID":128,"Asset_ID":"CFE150","Name":"تويست كرك","District_I":"Dahariz al Shamaliyya","Gov_ID":"2","Wlyt_ID":"Salalah","Road_ID":" ","Latitude":17.022671729999999,"Longitude":54.165790690000001,"GlobalID":"{33C74B4B-5EE2-40F5-B59A-847351669629}"}},{"type":"Feature","id":129,"geometry":{"type":"Point","coordinates":[196541.90380000044,1885869.2489999998]},"properties":{"OBJECTID":129,"Asset_ID":"CFE151","Name":"Share cafe","District_I":"al Sada al Janubiyya","Gov_ID":"2","Wlyt_ID":"Salalah","Road_ID":" ","Latitude":17.03707343,"Longitude":54.149528490000002,"GlobalID":"{12647F3E-20F4-417B-8669-77764DC02B5A}"}},{"type":"Feature","id":130,"geometry":{"type":"Point","coordinates":[196537.48529999983,1885868.9728999995]},"properties":{"OBJECTID":130,"Asset_ID":"CFE152","Name":"Lavan coffee","District_I":"al Sada al Janubiyya","Gov_ID":"2","Wlyt_ID":"Salalah","Road_ID":" ","Latitude":17.03707035,"Longitude":54.149487059999998,"GlobalID":"{31230BE9-17DF-40B2-9AFA-D89A8F39E40B}"}},{"type":"Feature","id":131,"geometry":{"type":"Point","coordinates":[196522.84889999963,1885869.6633000001]},"properties":{"OBJECTID":131,"Asset_ID":"CFE153","Name":"Top 10 cafe\r\n","District_I":"al Sada al Janubiyya","Gov_ID":"2","Wlyt_ID":"Salalah","Road_ID":" ","Latitude":17.037074659999998,"Longitude":54.149349600000001,"GlobalID":"{66087766-7ECD-4A1B-8ED0-D9C76A9A6FCB}"}},{"type":"Feature","id":132,"geometry":{"type":"Point","coordinates":[189166.42499999981,1883626.3014000002]},"properties":{"OBJECTID":132,"Asset_ID":"CFE154","Name":"Jabal al safa جبل الصفاء\r\n","District_I":"Salalah al Jadida","Gov_ID":"2","Wlyt_ID":"Salalah","Road_ID":" ","Latitude":17.015841529999999,"Longitude":54.080627419999999,"GlobalID":"{75AD4D86-F33D-444D-90BB-A6D4E6C6204D}"}},{"type":"Feature","id":133,"geometry":{"type":"Point","coordinates":[187733.43479999993,1883758.2774999999]},"properties":{"OBJECTID":133,"Asset_ID":"CFE155","Name":"مقهى","District_I":"al Wadi","Gov_ID":"2","Wlyt_ID":"Salalah","Road_ID":" ","Latitude":17.01683946,"Longitude":54.0671629,"GlobalID":"{1BFB6BE7-9359-476C-9ED3-CF4EDA4BB70B}"}},{"type":"Feature","id":134,"geometry":{"type":"Point","coordinates":[187578.73460000008,1883744.9578000009]},"properties":{"OBJECTID":134,"Asset_ID":"CFE156","Name":"مقهى","District_I":"al Wadi","Gov_ID":"2","Wlyt_ID":"Salalah","Road_ID":" ","Latitude":17.016698269999999,"Longitude":54.065713199999998,"GlobalID":"{6656D8B2-8A9B-49F4-94E3-38253589E206}"}}]}