{"type":"FeatureCollection","crs":{"type":"name","properties":{"name":"EPSG:32640"}},"features":[{"type":"Feature","id":1,"geometry":{"type":"Point","coordinates":[189174.59869999997,1883174.9913999997]},"properties":{"OBJECTID":1,"Asset_ID":"CSM1","Name":"البيع بالتجزئة في المتاجز المتخصصة للعطور و مستحضرات التجميل","District_ID":"Salalah al Jadida","Gov_ID":"Dhofar Governorate","Wlyt_ID":"Salalah","Road_ID":"103812","Latitude":17.011768320000002,"Longitude":54.080767299999998,"NEAR_FID":1664,"NEAR_DIST":14.52700991491219,"GlobalID":"{F3D13C6E-6B9C-4C6F-840F-A013D70EE8D0}"}},{"type":"Feature","id":2,"geometry":{"type":"Point","coordinates":[187077.62650000025,1882464.4021000005]},"properties":{"OBJECTID":2,"Asset_ID":"CSM2","Name":"رحيق اللواء الأخضر","District_ID":"al Wadi","Gov_ID":"Dhofar Governorate","Wlyt_ID":"Salalah","Road_ID":"105378","Latitude":17.005070029999999,"Longitude":54.061191710000003,"NEAR_FID":7802,"NEAR_DIST":6.4595607244770683,"GlobalID":"{56528417-1D5D-493D-9204-14B60B0A6A83}"}},{"type":"Feature","id":3,"geometry":{"type":"Point","coordinates":[187573.05310000014,1883742.5130000003]},"properties":{"OBJECTID":3,"Asset_ID":"CSM3","Name":"بيع الملابس الجاهزة و العطور و مستحضرات التجميل و الاحذية","District_ID":"al Wadi","Gov_ID":"Dhofar Governorate","Wlyt_ID":"Salalah","Road_ID":"104343","Latitude":17.016675429999999,"Longitude":54.065660229999999,"NEAR_FID":11581,"NEAR_DIST":16.872527383901982,"GlobalID":"{3B0DC052-0F15-43AC-A51E-D39FB203A9D8}"}},{"type":"Feature","id":4,"geometry":{"type":"Point","coordinates":[189632.38049999997,1883839.9060999993]},"properties":{"OBJECTID":4,"Asset_ID":"CSM4","Name":"زهرة اللوتس الماسية للتجارة","District_ID":"Salalah al Jadida","Gov_ID":"Dhofar Governorate","Wlyt_ID":"Salalah","Road_ID":"104187","Latitude":17.017832640000002,"Longitude":54.084969710000003,"NEAR_FID":15993,"NEAR_DIST":10.374862855287532,"GlobalID":"{2B49985F-C8E7-44C1-85CD-63708BF8F6CF}"}},{"type":"Feature","id":5,"geometry":{"type":"Point","coordinates":[188964.31969999988,1883611.7814000007]},"properties":{"OBJECTID":5,"Asset_ID":"CSM5","Name":"الفخرة الظفارية","District_ID":"Salalah al Jadida","Gov_ID":"Dhofar Governorate","Wlyt_ID":"Salalah","Road_ID":"104238","Latitude":17.015683209999999,"Longitude":54.078733059999998,"NEAR_FID":10677,"NEAR_DIST":9.3127474558864964,"GlobalID":"{0AAECF53-037A-45CD-AC60-32B166A356DE}"}},{"type":"Feature","id":6,"geometry":{"type":"Point","coordinates":[189969.9804999996,1883854.6164999995]},"properties":{"OBJECTID":6,"Asset_ID":"CSM6","Name":"Shades","District_ID":"Salalah al Jadida","Gov_ID":"Dhofar Governorate","Wlyt_ID":"Salalah","Road_ID":"104247","Latitude":17.018010839999999,"Longitude":54.088135479999998,"NEAR_FID":668,"NEAR_DIST":6.0183786957907488,"GlobalID":"{04BA79E0-1A1E-42AB-B493-818B58520D67}"}},{"type":"Feature","id":7,"geometry":{"type":"Point","coordinates":[189967.99469999969,1883879.8280999996]},"properties":{"OBJECTID":7,"Asset_ID":"CSM7","Name":"مستحضرات التجميل و العطور","District_ID":"Salalah al Jadida","Gov_ID":"Dhofar Governorate","Wlyt_ID":"Salalah","Road_ID":"104247","Latitude":17.01823817,"Longitude":54.088113319999998,"NEAR_FID":668,"NEAR_DIST":6.4972753525802895,"GlobalID":"{DA315B7B-37E0-4FC5-8684-F5A90E6AD3FD}"}},{"type":"Feature","id":8,"geometry":{"type":"Point","coordinates":[188659.15699999966,1883632.2119999994]},"properties":{"OBJECTID":8,"Asset_ID":"CSM8","Name":"Alfajar Almashriq","District_ID":"Salalah al Jadida","Gov_ID":"Dhofar Governorate","Wlyt_ID":"Salalah","Road_ID":"104315","Latitude":17.015826489999998,"Longitude":54.0758668,"NEAR_FID":4079,"NEAR_DIST":12.622246934611091,"GlobalID":"{DCDC2068-DDA8-4A55-AC51-E79182CAA691}"}},{"type":"Feature","id":9,"geometry":{"type":"Point","coordinates":[188885.03479999956,1882851.6675000004]},"properties":{"OBJECTID":9,"Asset_ID":"CSM9","Name":"Rania Cosmetics","District_ID":"Salalah al Gharbiyya","Gov_ID":"2","Wlyt_ID":"Salalah","Road_ID":null,"Latitude":17.00881043,"Longitude":54.078095619999999,"NEAR_FID":null,"NEAR_DIST":null,"GlobalID":"{5B803895-F8DB-4896-8BD7-FB0E1831BC0F}"}},{"type":"Feature","id":10,"geometry":{"type":"Point","coordinates":[189173.72059999965,1882934.4088000003]},"properties":{"OBJECTID":10,"Asset_ID":"CSM10","Name":"CARESS ","District_ID":"Salalah al Gharbiyya","Gov_ID":"2","Wlyt_ID":"Salalah","Road_ID":null,"Latitude":17.009596290000001,"Longitude":54.08079274,"NEAR_FID":null,"NEAR_DIST":null,"GlobalID":"{F5408A97-A542-4B98-BBED-59E99FB214F4}"}},{"type":"Feature","id":11,"geometry":{"type":"Point","coordinates":[189501.65840000007,1883009.557]},"properties":{"OBJECTID":11,"Asset_ID":"CSM11","Name":"Nazih Cosmetics","District_ID":"Salalah al Gharbiyya","Gov_ID":"2","Wlyt_ID":"Salalah","Road_ID":null,"Latitude":17.010318850000001,"Longitude":54.083859240000002,"NEAR_FID":null,"NEAR_DIST":null,"GlobalID":"{C15B027A-F2B1-42E4-A645-A8DB4C98E434}"}},{"type":"Feature","id":12,"geometry":{"type":"Point","coordinates":[190049.06919999979,1883070.9450000003]},"properties":{"OBJECTID":12,"Asset_ID":"CSM12","Name":"Makeup point","District_ID":"Salalah al Gharbiyya","Gov_ID":"2","Wlyt_ID":"Salalah","Road_ID":null,"Latitude":17.010946629999999,"Longitude":54.088987019999998,"NEAR_FID":null,"NEAR_DIST":null,"GlobalID":"{A952B4D7-7014-48AC-866C-9932691E6C2B}"}},{"type":"Feature","id":13,"geometry":{"type":"Point","coordinates":[190275.76719999965,1883201.2544]},"properties":{"OBJECTID":13,"Asset_ID":"CSM13","Name":"راما بيوتي","District_ID":"Salalah al Wousta","Gov_ID":"2","Wlyt_ID":"Salalah","Road_ID":null,"Latitude":17.012153479999998,"Longitude":54.091095959999997,"NEAR_FID":null,"NEAR_DIST":null,"GlobalID":"{6D606CF7-A457-4AAC-8D73-CD4B29764175}"}},{"type":"Feature","id":14,"geometry":{"type":"Point","coordinates":[190281.64199999999,1883229.7580999993]},"properties":{"OBJECTID":14,"Asset_ID":"CSM14","Name":"Cosmetic Najm","District_ID":"Salalah al Wousta","Gov_ID":"2","Wlyt_ID":"Salalah","Road_ID":null,"Latitude":17.012411589999999,"Longitude":54.091147110000001,"NEAR_FID":null,"NEAR_DIST":null,"GlobalID":"{8D3AB0F4-29F2-416E-9800-D992B2C1FF23}"}},{"type":"Feature","id":15,"geometry":{"type":"Point","coordinates":[190308.33249999955,1883237.0109999999]},"properties":{"OBJECTID":15,"Asset_ID":"CSM15","Name":"نبض العبير لبيع الأعشاب الطبيعية ومستحضرات التجميل والعطور","District_ID":"Salalah al Wousta","Gov_ID":"2","Wlyt_ID":"Salalah","Road_ID":null,"Latitude":17.012480650000001,"Longitude":54.091396529999997,"NEAR_FID":null,"NEAR_DIST":null,"GlobalID":"{33CE8C1F-F520-49A9-B92F-03E8D1BDC5EE}"}},{"type":"Feature","id":16,"geometry":{"type":"Point","coordinates":[190452.88159999996,1883256.0858999994]},"properties":{"OBJECTID":16,"Asset_ID":"CSM16","Name":"العطور مستحضرات التجميل مشاريع النقاء","District_ID":"Salalah al Wousta","Gov_ID":"2","Wlyt_ID":"Salalah","Road_ID":null,"Latitude":17.012672250000001,"Longitude":54.092750199999998,"NEAR_FID":null,"NEAR_DIST":null,"GlobalID":"{80CA057A-EC59-4554-B657-7EB16F1468E7}"}},{"type":"Feature","id":17,"geometry":{"type":"Point","coordinates":[190492.84480000008,1883263.9914999995]},"properties":{"OBJECTID":17,"Asset_ID":"CSM17","Name":"العطار لمواد التجميل والأعشاب الطبيعية والعسل","District_ID":"Salalah al Wousta","Gov_ID":"2","Wlyt_ID":"Salalah","Road_ID":null,"Latitude":17.012748980000001,"Longitude":54.093124080000003,"NEAR_FID":null,"NEAR_DIST":null,"GlobalID":"{9AC82ED2-C046-475D-8BD8-082E63A0102A}"}}]}