{"type":"FeatureCollection","crs":{"type":"name","properties":{"name":"EPSG:32640"}},"features":[{"type":"Feature","id":1,"geometry":{"type":"Point","coordinates":[188452.83440000005,1882997.8172999993]},"properties":{"OBJECTID":1,"Asset_ID":"SS1","Name":"One point car","District_ID":"Salalah al Jadida","Gov_ID":"2","Wlyt_ID":"Salalah","Road_ID":null,"Latitude":17.010071530000001,"Longitude":54.07401986,"GlobalID":"{5A3CF34B-795F-4450-87FC-4E2C6472DED8}"}},{"type":"Feature","id":2,"geometry":{"type":"Point","coordinates":[185372.43180000037,1883788.2891000006]},"properties":{"OBJECTID":2,"Asset_ID":"SS2","Name":"VIP AUTO","District_ID":"New Industrial Area","Gov_ID":"2","Wlyt_ID":"Salalah","Road_ID":null,"Latitude":17.01678961,"Longitude":54.045005250000003,"GlobalID":"{BD3D5A94-6476-4885-A600-C759E924D97D}"}},{"type":"Feature","id":3,"geometry":{"type":"Point","coordinates":[192510.62559999991,1884371.4386999998]},"properties":{"OBJECTID":3,"Asset_ID":"SS3","Name":"قطع غيار العربية","District_ID":"al Huseela","Gov_ID":"2","Wlyt_ID":"Salalah","Road_ID":null,"Latitude":17.023016760000001,"Longitude":54.11190397,"GlobalID":"{0EEF2D74-6E12-4740-A7F4-4849E4C9270C}"}},{"type":"Feature","id":4,"geometry":{"type":"Point","coordinates":[196935.09659999982,1887630.8568999991]},"properties":{"OBJECTID":4,"Asset_ID":"SS4","Name":"دنلوب","District_ID":"al Sada al Janubiyya","Gov_ID":"2","Wlyt_ID":"Salalah","Road_ID":null,"Latitude":17.05302949,"Longitude":54.152977540000002,"GlobalID":"{D88E47F5-9255-412B-BE31-67800731A96E}"}},{"type":"Feature","id":5,"geometry":{"type":"Point","coordinates":[195789.86199999973,1885716.8886999991]},"properties":{"OBJECTID":5,"Asset_ID":"SS5","Name":"تنظيف السيارات و تبديل الزيت","District_ID":"al Sada al Janubiyya","Gov_ID":"2","Wlyt_ID":"Salalah","Road_ID":null,"Latitude":17.035598709999999,"Longitude":54.142491630000002,"GlobalID":"{A30966CF-1B42-48E4-B3CA-328802E3C91C}"}},{"type":"Feature","id":6,"geometry":{"type":"Point","coordinates":[191658.53079999983,1883814.6461999994]},"properties":{"OBJECTID":6,"Asset_ID":"SS6","Name":"تاجير السيارات","District_ID":"al Zaweya","Gov_ID":"2","Wlyt_ID":"Salalah","Road_ID":null,"Latitude":17.017876309999998,"Longitude":54.103985459999997,"GlobalID":"{F8D6C6C0-EA86-4A6C-8B65-C48A176AF547}"}},{"type":"Feature","id":7,"geometry":{"type":"Point","coordinates":[186914.52049999963,1884005.3925000001]},"properties":{"OBJECTID":7,"Asset_ID":"SS7","Name":"Toyota Service Station – Maintenance & Spare Parts","District_ID":"Salalah Airport","Gov_ID":"2","Wlyt_ID":"Salalah","Road_ID":null,"Latitude":17.01895931,"Longitude":54.059444079999999,"GlobalID":"{532DBECE-BBB4-40B2-BBF8-B78E8264C5EB}"}},{"type":"Feature","id":8,"geometry":{"type":"Point","coordinates":[185394.98680000007,1883750.2854999993]},"properties":{"OBJECTID":8,"Asset_ID":"SS8","Name":"Mazda & Geely – Service, Maintenance & Spare Parts","District_ID":"New Industrial Area","Gov_ID":"2","Wlyt_ID":"Salalah","Road_ID":null,"Latitude":17.016449609999999,"Longitude":54.045222269999996,"GlobalID":"{C70BDE06-F4EB-4D69-ABC2-A3D5A3AAD1AE}"}},{"type":"Feature","id":9,"geometry":{"type":"Point","coordinates":[185568.41540000029,1883408.1906000003]},"properties":{"OBJECTID":9,"Asset_ID":"SS9","Name":"دنلوب","District_ID":"New Industrial Area","Gov_ID":"2","Wlyt_ID":"Salalah","Road_ID":null,"Latitude":17.013385,"Longitude":54.046897999999999,"GlobalID":"{CB3DB619-4955-49BB-AAF2-8D8411D51C5E}"}},{"type":"Feature","id":10,"geometry":{"type":"Point","coordinates":[185314.35230000038,1883761.5546000004]},"properties":{"OBJECTID":10,"Asset_ID":"SS10","Name":"Hyundai – Service, Maintenance & Spare Parts","District_ID":"New Industrial Area","Gov_ID":"2","Wlyt_ID":"Salalah","Road_ID":null,"Latitude":17.016540339999999,"Longitude":54.044464089999998,"GlobalID":"{3D4F2997-6407-4556-ACC5-AF067B0D2823}"}},{"type":"Feature","id":11,"geometry":{"type":"Point","coordinates":[185335.89149999991,1883703.7352000009]},"properties":{"OBJECTID":11,"Asset_ID":"SS11","Name":"HINO SERVICE STATION","District_ID":"New Industrial Area","Gov_ID":"2","Wlyt_ID":"Salalah","Road_ID":null,"Latitude":17.01602132,"Longitude":54.044674389999997,"GlobalID":"{B6FD9864-2C91-4A7B-A81D-C2065D4FB61F}"}},{"type":"Feature","id":12,"geometry":{"type":"Point","coordinates":[185395.4907999998,1883604.7542000003]},"properties":{"OBJECTID":12,"Asset_ID":"SS12","Name":"Arabian Car Marketing Co. LLC. FORD","District_ID":"New Industrial Area","Gov_ID":"2","Wlyt_ID":"Salalah","Road_ID":null,"Latitude":17.015135900000001,"Longitude":54.045247629999999,"GlobalID":"{A1679D5C-83BF-4670-9832-D0CBFA91B023}"}},{"type":"Feature","id":13,"geometry":{"type":"Point","coordinates":[185487.38750000019,1883462.3911000006]},"properties":{"OBJECTID":13,"Asset_ID":"SS13","Name":"Mercedes-Benz Service Centre\r\nشركة الزواوي للتجارة وكالة مرسيدس صلالة","District_ID":"New Industrial Area","Gov_ID":"2","Wlyt_ID":"Salalah","Road_ID":null,"Latitude":17.01386325,"Longitude":54.046130050000002,"GlobalID":"{704681E1-B1A3-46C6-B4E1-369E64D573CC}"}},{"type":"Feature","id":14,"geometry":{"type":"Point","coordinates":[185536.63999999966,1883366.9109000005]},"properties":{"OBJECTID":14,"Asset_ID":"SS14","Name":"Al HASHAR AND CO. LLC","District_ID":"New Industrial Area","Gov_ID":"2","Wlyt_ID":"Salalah","Road_ID":null,"Latitude":17.013008020000001,"Longitude":54.046605700000001,"GlobalID":"{5A121B69-CF8F-4BED-8FAD-57F73B6F6E19}"}},{"type":"Feature","id":15,"geometry":{"type":"Point","coordinates":[185637.0418999996,1883953.0568000004]},"properties":{"OBJECTID":15,"Asset_ID":"SS15","Name":"زياد الكهربائي","District_ID":"New Industrial Area","Gov_ID":"2","Wlyt_ID":"Salalah","Road_ID":null,"Latitude":17.018313110000001,"Longitude":54.047464740000002,"GlobalID":"{2AD3432D-2EEF-4AFC-9872-657B41C7FBF6}"}},{"type":"Feature","id":16,"geometry":{"type":"Point","coordinates":[185600.34059999976,1883927.0782999992]},"properties":{"OBJECTID":16,"Asset_ID":"SS16","Name":"GMC Service Station – Maintenance & Spare Parts","District_ID":"New Industrial Area","Gov_ID":"2","Wlyt_ID":"Salalah","Road_ID":null,"Latitude":17.01807359,"Longitude":54.047124050000001,"GlobalID":"{60916FE4-C68A-4AC2-8669-755AF64858FC}"}},{"type":"Feature","id":17,"geometry":{"type":"Point","coordinates":[185416.05510000046,1883590.3246999998]},"properties":{"OBJECTID":17,"Asset_ID":"SS17","Name":"Faisal Muhaad Bait Saeed Establishment – Service, Maintenance & Spare Parts","District_ID":"New Industrial Area","Gov_ID":"2","Wlyt_ID":"Salalah","Road_ID":null,"Latitude":17.015008439999999,"Longitude":54.045442629999997,"GlobalID":"{7E3DD4AD-BB45-4380-A5B3-8274E6D0FE8F}"}},{"type":"Feature","id":18,"geometry":{"type":"Point","coordinates":[185441.21050000004,1883658.4645000007]},"properties":{"OBJECTID":18,"Asset_ID":"SS18","Name":"OTE Group - ISUZU Showroom, Salalah","District_ID":"New Industrial Area","Gov_ID":"2","Wlyt_ID":"Salalah","Road_ID":null,"Latitude":17.015626999999999,"Longitude":54.045668999999997,"GlobalID":"{0A501141-F959-45EF-9C86-C1888BD6A7D4}"}},{"type":"Feature","id":19,"geometry":{"type":"Point","coordinates":[185579.88839999959,1883242.6104000006]},"properties":{"OBJECTID":19,"Asset_ID":"SS19","Name":"MG Showroom – Mohsin Haider Darwish LLC – Service, Maintenance & Spare Parts","District_ID":"New Industrial Area","Gov_ID":"2","Wlyt_ID":"Salalah","Road_ID":null,"Latitude":17.01189179,"Longitude":54.047029100000003,"GlobalID":"{622356E7-CF51-48C6-8039-D9D8058F9F56}"}},{"type":"Feature","id":20,"geometry":{"type":"Point","coordinates":[185375.18379999977,1883595.0890999995]},"properties":{"OBJECTID":20,"Asset_ID":"SS20","Name":"Reliable Automotive LLC - Kia Motors","District_ID":"New Industrial Area","Gov_ID":"2","Wlyt_ID":"Salalah","Road_ID":null,"Latitude":17.015045879999999,"Longitude":54.04505846,"GlobalID":"{46AFFDAC-378F-4FB5-8EA9-9C146CDCBDA5}"}},{"type":"Feature","id":21,"geometry":{"type":"Point","coordinates":[186062.48390000034,1883515.6226000004]},"properties":{"OBJECTID":21,"Asset_ID":"SS21","Name":"Saud bahwan toyota Service And workshop","District_ID":"New Industrial Area","Gov_ID":"2","Wlyt_ID":"Salalah","Road_ID":null,"Latitude":17.014422110000002,"Longitude":54.051518559999998,"GlobalID":"{887ED9E6-BF15-4113-88EB-8981BEC86056}"}},{"type":"Feature","id":22,"geometry":{"type":"Point","coordinates":[185577.62260000035,1883289.9006999992]},"properties":{"OBJECTID":22,"Asset_ID":"SS22","Name":"Sayarti Car Rental Salalah","District_ID":"New Industrial Area","Gov_ID":"2","Wlyt_ID":"Salalah","Road_ID":null,"Latitude":17.012318400000002,"Longitude":54.047001139999999,"GlobalID":"{4E05018A-93D5-4EBC-B2C6-9D35AE119DB9}"}},{"type":"Feature","id":23,"geometry":{"type":"Point","coordinates":[191539.03920000046,1883783.0035999995]},"properties":{"OBJECTID":23,"Asset_ID":"SS23","Name":"تاجير السيارات","District_ID":"al Zaweya","Gov_ID":"2","Wlyt_ID":"Salalah","Road_ID":null,"Latitude":17.017574669999998,"Longitude":54.102868610000002,"GlobalID":"{BE52EFD7-8A1E-464B-8CB0-FE7041F0D592}"}},{"type":"Feature","id":24,"geometry":{"type":"Point","coordinates":[192177.22559999954,1883974.3647000007]},"properties":{"OBJECTID":24,"Asset_ID":"SS24","Name":"عوض فهد الشنفري للهكرباء","District_ID":"al Qoaf","Gov_ID":"2","Wlyt_ID":"Salalah","Road_ID":null,"Latitude":17.019387519999999,"Longitude":54.108830490000003,"GlobalID":"{B65EDF15-CF91-4019-9699-3CA99C94FA24}"}},{"type":"Feature","id":25,"geometry":{"type":"Point","coordinates":[192503.48060000036,1884371.2070000004]},"properties":{"OBJECTID":25,"Asset_ID":"SS25","Name":"W J Towell & Co LLC","District_ID":"al Huseela","Gov_ID":"2","Wlyt_ID":"Salalah","Road_ID":null,"Latitude":17.023013720000002,"Longitude":54.111836949999997,"GlobalID":"{70E4C7D8-D274-4CA0-91E6-E9EE90E9E690}"}},{"type":"Feature","id":26,"geometry":{"type":"Point","coordinates":[193032.78550000023,1884471.9655000009]},"properties":{"OBJECTID":26,"Asset_ID":"SS26","Name":"Al Robat Car Wash","District_ID":"al Huseela","Gov_ID":"2","Wlyt_ID":"Salalah","Road_ID":null,"Latitude":17.02399389,"Longitude":54.116789930000003,"GlobalID":"{A9C3237D-15F1-4545-B586-A8B87F9EB1FC}"}},{"type":"Feature","id":27,"geometry":{"type":"Point","coordinates":[186030.48709999956,1884291.5781999994]},"properties":{"OBJECTID":27,"Asset_ID":"SS27","Name":"المدينة لقطع غيار الاصلية","District_ID":"New Industrial Area","Gov_ID":"2","Wlyt_ID":"Salalah","Road_ID":null,"Latitude":17.021422699999999,"Longitude":54.051108569999997,"GlobalID":"{B9CC353D-08FE-4D94-AB16-4C12F107818F}"}},{"type":"Feature","id":28,"geometry":{"type":"Point","coordinates":[185605.71600000001,1883338.3131000008]},"properties":{"OBJECTID":28,"Asset_ID":"SS28","Name":"Jetour Oman - Salalah Service Center","District_ID":"New Industrial Area","Gov_ID":"2","Wlyt_ID":"Salalah","Road_ID":null,"Latitude":17.01275927,"Longitude":54.047257879999997,"GlobalID":"{496C5FED-469F-4709-B120-C5ED87D066A2}"}},{"type":"Feature","id":29,"geometry":{"type":"Point","coordinates":[185128.83980000019,1883836.7794000003]},"properties":{"OBJECTID":29,"Asset_ID":"SS29","Name":"العدناني لغسيل السيارات","District_ID":"New Industrial Area","Gov_ID":"2","Wlyt_ID":"Salalah","Road_ID":null,"Latitude":17.017194119999999,"Longitude":54.042712770000001,"GlobalID":"{E0C589DF-6C18-4641-9AE8-5B6B3EC7122A}"}},{"type":"Feature","id":30,"geometry":{"type":"Point","coordinates":[196791.66720000003,1892736.5925999992]},"properties":{"OBJECTID":30,"Asset_ID":"SS30","Name":"دنلوب","District_ID":null,"Gov_ID":"2","Wlyt_ID":"Salalah","Road_ID":null,"Latitude":17.09910644,"Longitude":54.150931059999998,"GlobalID":"{5D2964DC-7F46-45BD-AE35-778AA2B00479}"}},{"type":"Feature","id":31,"geometry":{"type":"Point","coordinates":[196870.92650000006,1892853.7366000004]},"properties":{"OBJECTID":31,"Asset_ID":"SS31","Name":"دنلوب","District_ID":null,"Gov_ID":"2","Wlyt_ID":"Salalah","Road_ID":null,"Latitude":17.100174519999999,"Longitude":54.15165906,"GlobalID":"{60F90C64-4326-4451-880C-CFD05858C38A}"}},{"type":"Feature","id":32,"geometry":{"type":"Point","coordinates":[198616.1632000003,1896448.1830000002]},"properties":{"OBJECTID":32,"Asset_ID":"SS32","Name":"تنظيف و تلميع السيارات","District_ID":null,"Gov_ID":"2","Wlyt_ID":"Salalah","Road_ID":null,"Latitude":17.132856260000001,"Longitude":54.167552090000001,"GlobalID":"{A62A01AC-49BD-4C41-AF82-CFE3D9A1164E}"}},{"type":"Feature","id":33,"geometry":{"type":"Point","coordinates":[198697.8487999998,1896489.7585000005]},"properties":{"OBJECTID":33,"Asset_ID":"SS33","Name":"تنظيف و تلميع السيارات","District_ID":null,"Gov_ID":"2","Wlyt_ID":"Salalah","Road_ID":null,"Latitude":17.133242370000001,"Longitude":54.168313410000003,"GlobalID":"{2C7D40A2-CEE3-48DE-8E41-86948B35CB31}"}},{"type":"Feature","id":34,"geometry":{"type":"Point","coordinates":[187476.15780000016,1882616.5705999993]},"properties":{"OBJECTID":34,"Asset_ID":"SS34","Name":"لمسة وكالة","District_ID":"al Wadi","Gov_ID":"2","Wlyt_ID":"Salalah","Road_ID":null,"Latitude":17.00649773,"Longitude":54.064909530000001,"GlobalID":"{D04D857B-84F1-4ED9-B3A4-10CA6222F176}"}},{"type":"Feature","id":35,"geometry":{"type":"Point","coordinates":[186895.37359999958,1882822.0976999998]},"properties":{"OBJECTID":35,"Asset_ID":"SS35","Name":"Top Plus Oil Change & Car wash","District_ID":"al Wadi","Gov_ID":"2","Wlyt_ID":"Salalah","Road_ID":null,"Latitude":17.008274440000001,"Longitude":54.0594313,"GlobalID":"{F2481D3F-20DA-4D38-BDCF-4EA125301115}"}},{"type":"Feature","id":36,"geometry":{"type":"Point","coordinates":[186867.9495000001,1882785.7627000008]},"properties":{"OBJECTID":36,"Asset_ID":"SS36","Name":"تلبيس و زينة السيارات","District_ID":"al Wadi","Gov_ID":"2","Wlyt_ID":"Salalah","Road_ID":null,"Latitude":17.007942709999998,"Longitude":54.059179110000002,"GlobalID":"{80D47107-E1C8-40A4-B34C-F10DE14BAA55}"}},{"type":"Feature","id":37,"geometry":{"type":"Point","coordinates":[186868.25679999962,1882781.2303999998]},"properties":{"OBJECTID":37,"Asset_ID":"SS37","Name":"ميزان الكتروني للسيارات","District_ID":"al Wadi","Gov_ID":"2","Wlyt_ID":"Salalah","Road_ID":null,"Latitude":17.007901830000002,"Longitude":54.059182640000003,"GlobalID":"{405FC696-4606-478D-B893-D06446CCF21E}"}},{"type":"Feature","id":38,"geometry":{"type":"Point","coordinates":[186867.9495000001,1882776.6213000007]},"properties":{"OBJECTID":38,"Asset_ID":"SS38","Name":"مغسلة سيارات","District_ID":"al Wadi","Gov_ID":"2","Wlyt_ID":"Salalah","Road_ID":null,"Latitude":17.007860180000002,"Longitude":54.059180400000002,"GlobalID":"{E619887A-B1C4-49D3-B983-CB9B171EA27C}"}},{"type":"Feature","id":39,"geometry":{"type":"Point","coordinates":[185241.05449999962,1882868.3505000006]},"properties":{"OBJECTID":39,"Asset_ID":"SS39","Name":"مغسلة سيارات","District_ID":"13","Gov_ID":"2","Wlyt_ID":"Salalah","Road_ID":null,"Latitude":17.008466989999999,"Longitude":54.043902969999998,"GlobalID":"{93F999C5-338A-4162-896C-B89A03360EAD}"}},{"type":"Feature","id":40,"geometry":{"type":"Point","coordinates":[185159.82160000037,1882411.7960000001]},"properties":{"OBJECTID":40,"Asset_ID":"SS40","Name":"اصلاح اطارات السيارات وميزانيتها","District_ID":"21","Gov_ID":"2","Wlyt_ID":"Salalah","Road_ID":null,"Latitude":17.004334400000001,"Longitude":54.04320551,"GlobalID":"{580C7CCD-F1C4-45BE-930F-CCDF551AF1F1}"}},{"type":"Feature","id":41,"geometry":{"type":"Point","coordinates":[184636.87999999989,1882396.4696999993]},"properties":{"OBJECTID":41,"Asset_ID":"SS41","Name":"اصلاح ميزان المركبات و اللاطارات","District_ID":"20","Gov_ID":"2","Wlyt_ID":"Salalah","Road_ID":null,"Latitude":17.004124669999999,"Longitude":54.03830129,"GlobalID":"{0B477962-65A3-4A9C-9939-69FA172D22CB}"}},{"type":"Feature","id":42,"geometry":{"type":"Point","coordinates":[184647.89080000017,1882383.3510999996]},"properties":{"OBJECTID":42,"Asset_ID":"SS42","Name":"تلبيس و زينة السيارات","District_ID":"20","Gov_ID":"2","Wlyt_ID":"Salalah","Road_ID":null,"Latitude":17.00400775,"Longitude":54.038406459999997,"GlobalID":"{D0475143-C1EB-41B8-A4F6-746DFF0649EE}"}}]}