{"type":"FeatureCollection","crs":{"type":"name","properties":{"name":"EPSG:32640"}},"features":[{"type":"Feature","id":1,"geometry":{"type":"Point","coordinates":[203990.24569999985,1894175.3690000009]},"properties":{"OBJECTID":1,"Asset_ID":"BKE1","Name":"مخبز رزات\r\n","District_I":" ","Gov_ID":"Dhofar Governorate","Wlyt_ID":"Salalah","Road_ID":" ","Latitude":17.11303654,"Longitude":54.218320040000002,"GlobalID":"{B1EB17D3-2076-457F-85E3-4CE5621FC4D7}"}},{"type":"Feature","id":2,"geometry":{"type":"Point","coordinates":[187699.91820000019,1890483.6780999992]},"properties":{"OBJECTID":2,"Asset_ID":"BKE2","Name":"Crave","District_I":" ","Gov_ID":"Dhofar Governorate","Wlyt_ID":"Salalah","Road_ID":" ","Latitude":17.07754911,"Longitude":54.065900190000001,"GlobalID":"{F36CEDE6-EF11-4D2F-9B24-27442173270E}"}},{"type":"Feature","id":3,"geometry":{"type":"Point","coordinates":[182472.73919999972,1885522.0756999999]},"properties":{"OBJECTID":3,"Asset_ID":"BKE3","Name":"Al jazeera bakery awqad","District_I":"Auqad al Shamaliyya Extension","Gov_ID":"Dhofar Governorate","Wlyt_ID":"Salalah","Road_ID":" ","Latitude":17.032043600000002,"Longitude":54.017549799999998,"GlobalID":"{C7308ABE-25A7-4B56-B868-EBFFAD61029A}"}},{"type":"Feature","id":4,"geometry":{"type":"Point","coordinates":[183011.34499999974,1887336.8724000007]},"properties":{"OBJECTID":4,"Asset_ID":"BKE4","Name":"مخبز اتين","District_I":" ","Gov_ID":"Dhofar Governorate","Wlyt_ID":"Salalah","Road_ID":" ","Latitude":17.048500350000001,"Longitude":54.022344220000001,"GlobalID":"{D55ED4EF-2180-4144-994F-7A35444FF028}"}},{"type":"Feature","id":5,"geometry":{"type":"Point","coordinates":[198602.23539999966,1896503.2009999994]},"properties":{"OBJECTID":5,"Asset_ID":"BKE5","Name":"صنع الخبز و منتجاته","District_I":" ","Gov_ID":"Dhofar Governorate","Wlyt_ID":"Salalah","Road_ID":" ","Latitude":17.133351149999999,"Longitude":54.167413779999997,"GlobalID":"{09F0B810-C1A8-40B4-8B08-C3F1CE98680B}"}},{"type":"Feature","id":6,"geometry":{"type":"Point","coordinates":[184257.55810000002,1886322.8546999991]},"properties":{"OBJECTID":6,"Asset_ID":"BKE6","Name":"مخبز شركة ابراج","District_I":"Auqad al Shamaliyya Extension","Gov_ID":"Dhofar Governorate","Wlyt_ID":"Salalah","Road_ID":" ","Latitude":17.039517700000001,"Longitude":54.034183689999999,"GlobalID":"{F2736FBE-60EC-4F89-BBFF-A5E6E8DBEA11}"}},{"type":"Feature","id":7,"geometry":{"type":"Point","coordinates":[193439.50119999982,1892487.1764000002]},"properties":{"OBJECTID":7,"Asset_ID":"BKE7","Name":"مخبز","District_I":" ","Gov_ID":"Dhofar Governorate","Wlyt_ID":"Salalah","Road_ID":" ","Latitude":17.096409430000001,"Longitude":54.119496210000001,"GlobalID":"{00BB75B0-D235-44C8-88AB-D1A017E0E4FF}"}},{"type":"Feature","id":8,"geometry":{"type":"Point","coordinates":[201287.65259999968,1893557.9877000004]},"properties":{"OBJECTID":8,"Asset_ID":"BKE8","Name":"مخبز الجزيرة الحديثة","District_I":" ","Gov_ID":"Dhofar Governorate","Wlyt_ID":"Salalah","Road_ID":" ","Latitude":17.107112019999999,"Longitude":54.19302879,"GlobalID":"{DE8AF840-09E0-40E1-8E10-E8C046933651}"}},{"type":"Feature","id":9,"geometry":{"type":"Point","coordinates":[196790.78309999965,1892772.3752999995]},"properties":{"OBJECTID":9,"Asset_ID":"BKE9","Name":"صنع الخبز و منتجاته","District_I":" ","Gov_ID":"Dhofar Governorate","Wlyt_ID":"Salalah","Road_ID":" ","Latitude":17.09942938,"Longitude":54.150917849999999,"GlobalID":"{AF08658E-7199-4D38-A11C-367B2EB9FAC9}"}},{"type":"Feature","id":10,"geometry":{"type":"Point","coordinates":[186784.58249999955,1887321.7545999996]},"properties":{"OBJECTID":10,"Asset_ID":"BKE10","Name":"مخبز","District_I":" ","Gov_ID":"Dhofar Governorate","Wlyt_ID":"Salalah","Road_ID":" ","Latitude":17.048880260000001,"Longitude":54.057756320000003,"GlobalID":"{A5CC24DD-E1CC-41A8-8A38-02804D53F627}"}},{"type":"Feature","id":11,"geometry":{"type":"Point","coordinates":[201177.79559999984,1893484.2537999991]},"properties":{"OBJECTID":11,"Asset_ID":"BKE11","Name":"مخبز الأحقاف الألي","District_I":" ","Gov_ID":"Dhofar Governorate","Wlyt_ID":"Salalah","Road_ID":" ","Latitude":17.106432009999999,"Longitude":54.192007359999998,"GlobalID":"{DC848904-AD7E-4E31-8139-A5AC3F72D8D8}"}},{"type":"Feature","id":12,"geometry":{"type":"Point","coordinates":[197719.65780000016,1883985.5866999999]},"properties":{"OBJECTID":12,"Asset_ID":"BKE12","Name":"مخبز وحلويات شعاع الشمس\r\n","District_I":"Dahariz al Shamaliyya","Gov_ID":"Dhofar Governorate","Wlyt_ID":"Salalah","Road_ID":" ","Latitude":17.020221859999999,"Longitude":54.160838320000003,"GlobalID":"{C2D22273-BA3A-4623-890A-71EEEDB3E64F}"}},{"type":"Feature","id":13,"geometry":{"type":"Point","coordinates":[197792.50690000039,1884026.9615000002]},"properties":{"OBJECTID":13,"Asset_ID":"BKE13","Name":"حلويات طالب","District_I":"Dahariz al Shamaliyya","Gov_ID":"Dhofar Governorate","Wlyt_ID":"Salalah","Road_ID":" ","Latitude":17.020604949999999,"Longitude":54.161516310000003,"GlobalID":"{5749B42B-A3CE-4DE1-912D-2F44F619FC1D}"}},{"type":"Feature","id":14,"geometry":{"type":"Point","coordinates":[197889.58990000002,1884022.2329999991]},"properties":{"OBJECTID":14,"Asset_ID":"BKE14","Name":"مخبز عمان الحديث\r\n","District_I":"Dahariz al Shamaliyya","Gov_ID":"Dhofar Governorate","Wlyt_ID":"Salalah","Road_ID":" ","Latitude":17.020574979999999,"Longitude":54.162427989999998,"GlobalID":"{8070F1B6-8FAC-4EDB-BF81-9AE0C5FFDFBD}"}},{"type":"Feature","id":15,"geometry":{"type":"Point","coordinates":[197946.18460000027,1884100.2539000008]},"properties":{"OBJECTID":15,"Asset_ID":"BKE15","Name":"بيع منتجات المخابز و الحلويات السكرية","District_I":"Dahariz al Shamaliyya","Gov_ID":"Dhofar Governorate","Wlyt_ID":"Salalah","Road_ID":" ","Latitude":17.021286799999999,"Longitude":54.162948460000003,"GlobalID":"{16E865A6-90E2-4C64-8A2A-C5126EF97133}"}},{"type":"Feature","id":16,"geometry":{"type":"Point","coordinates":[198110.05829999968,1884179.7525999993]},"properties":{"OBJECTID":16,"Asset_ID":"BKE16","Name":"مخبز الريف","District_I":"Dahariz al Shamaliyya","Gov_ID":"Dhofar Governorate","Wlyt_ID":"Salalah","Road_ID":" ","Latitude":17.022026,"Longitude":54.164475469999999,"GlobalID":"{03A5456F-8496-43C9-A41A-245BD910DEDC}"}},{"type":"Feature","id":17,"geometry":{"type":"Point","coordinates":[198096.16820000019,1884176.2061999999]},"properties":{"OBJECTID":17,"Asset_ID":"BKE17","Name":"مخبز الشروق","District_I":"Dahariz al Shamaliyya","Gov_ID":"Dhofar Governorate","Wlyt_ID":"Salalah","Road_ID":" ","Latitude":17.02199216,"Longitude":54.164345599999997,"GlobalID":"{109A79E5-EDBA-4D7C-BD70-ED98013ED3A1}"}},{"type":"Feature","id":18,"geometry":{"type":"Point","coordinates":[189906.79420000035,1883836.9146999996]},"properties":{"OBJECTID":18,"Asset_ID":"BKE18","Name":"مخبز","District_I":"Salalah al Jadida","Gov_ID":"Dhofar Governorate","Wlyt_ID":"Salalah","Road_ID":" ","Latitude":17.01784254,"Longitude":54.087545050000003,"GlobalID":"{4AAA910E-92AC-4F8D-9362-CA9BD5622961}"}},{"type":"Feature","id":19,"geometry":{"type":"Point","coordinates":[189639.53560000006,1883796.9343999997]},"properties":{"OBJECTID":19,"Asset_ID":"BKE19","Name":"Kul Waashkur","District_I":"Salalah al Jadida","Gov_ID":"Dhofar Governorate","Wlyt_ID":"Salalah","Road_ID":" ","Latitude":17.01744566,"Longitude":54.085042860000001,"GlobalID":"{786CC8A8-FA6B-4C50-948F-77AC5C3CE7B2}"}},{"type":"Feature","id":20,"geometry":{"type":"Point","coordinates":[189532.06280000042,1883822.2026000004]},"properties":{"OBJECTID":20,"Asset_ID":"BKE20","Name":" مخبز عمان الحديث","District_I":"Salalah al Jadida","Gov_ID":"Dhofar Governorate","Wlyt_ID":"Salalah","Road_ID":" ","Latitude":17.017659309999999,"Longitude":54.08403088,"GlobalID":"{30F0E600-F127-4FD3-A00E-C131F0AF1EA3}"}},{"type":"Feature","id":21,"geometry":{"type":"Point","coordinates":[189442.87619999982,1883814.8881000001]},"properties":{"OBJECTID":21,"Asset_ID":"BKE21","Name":"مخبز","District_I":"Salalah al Jadida","Gov_ID":"Dhofar Governorate","Wlyt_ID":"Salalah","Road_ID":" ","Latitude":17.017581280000002,"Longitude":54.083195029999999,"GlobalID":"{9DF0B9CB-11C9-4AD9-B5AE-45287429347C}"}},{"type":"Feature","id":22,"geometry":{"type":"Point","coordinates":[188984.30379999988,1883701.1970000006]},"properties":{"OBJECTID":22,"Asset_ID":"BKE23","Name":"مخبز الأحقاف الالي\r\n","District_I":"Salalah al Jadida","Gov_ID":"Dhofar Governorate","Wlyt_ID":"Salalah","Road_ID":" ","Latitude":17.016493130000001,"Longitude":54.078908040000002,"GlobalID":"{BDD3889B-0F63-40EA-BB64-B90C932B0B28}"}},{"type":"Feature","id":23,"geometry":{"type":"Point","coordinates":[189570.81190000009,1884139.5196000002]},"properties":{"OBJECTID":23,"Asset_ID":"BKE24","Name":"مخبز الشياح","District_I":"Salalah al Jadida","Gov_ID":"Dhofar Governorate","Wlyt_ID":"Salalah","Road_ID":" ","Latitude":17.020529190000001,"Longitude":54.08435008,"GlobalID":"{4811CE31-146E-432D-A6B0-3357A9B1906F}"}},{"type":"Feature","id":24,"geometry":{"type":"Point","coordinates":[189165.37200000044,1883792.0238000005]},"properties":{"OBJECTID":24,"Asset_ID":"BKE25","Name":"National Bakery\r\n","District_I":"Salalah al Jadida","Gov_ID":"Dhofar Governorate","Wlyt_ID":"Salalah","Road_ID":" ","Latitude":17.017337489999999,"Longitude":54.080594329999997,"GlobalID":"{8C1A4E5C-5A9A-4728-BA3C-0CC8592EB847}"}},{"type":"Feature","id":25,"geometry":{"type":"Point","coordinates":[189240.89719999954,1883419.9900000002]},"properties":{"OBJECTID":25,"Asset_ID":"BKE26","Name":"حلويات بلاد الشام","District_I":"Salalah al Jadida","Gov_ID":"Dhofar Governorate","Wlyt_ID":"Salalah","Road_ID":" ","Latitude":17.013989039999998,"Longitude":54.081355090000002,"GlobalID":"{7A168CAF-E8C4-4E48-8AD3-1EDC71B91ED5}"}},{"type":"Feature","id":26,"geometry":{"type":"Point","coordinates":[189873.35919999983,1883416.2994999997]},"properties":{"OBJECTID":26,"Asset_ID":"BKE27","Name":"مخبز التساعد","District_I":"Salalah al Jadida","Gov_ID":"Dhofar Governorate","Wlyt_ID":"Salalah","Road_ID":" ","Latitude":17.014040810000001,"Longitude":54.087290090000003,"GlobalID":"{269DB5ED-8FA9-46B3-B899-9255813308F7}"}},{"type":"Feature","id":27,"geometry":{"type":"Point","coordinates":[189693.67210000008,1883486.7761000004]},"properties":{"OBJECTID":27,"Asset_ID":"BKE29","Name":"حلويات أفندينا","District_I":"Salalah al Jadida","Gov_ID":"Dhofar Governorate","Wlyt_ID":"Salalah","Road_ID":" ","Latitude":17.014652900000002,"Longitude":54.085594200000003,"GlobalID":"{678A1C88-1994-40A0-ADA4-72BD936CA6E1}"}},{"type":"Feature","id":28,"geometry":{"type":"Point","coordinates":[189741.33559999987,1883474.6978999991]},"properties":{"OBJECTID":28,"Asset_ID":"BKE30","Name":"مخبز","District_I":"Salalah al Jadida","Gov_ID":"Dhofar Governorate","Wlyt_ID":"Salalah","Road_ID":" ","Latitude":17.014550270000001,"Longitude":54.08604313,"GlobalID":"{A4FCF122-636A-4C9C-8443-4227A1A77B5A}"}},{"type":"Feature","id":29,"geometry":{"type":"Point","coordinates":[189772.24540000036,1883483.1395999994]},"properties":{"OBJECTID":29,"Asset_ID":"BKE31","Name":"مخبز ابو مازن","District_I":"Salalah al Jadida","Gov_ID":"Dhofar Governorate","Wlyt_ID":"Salalah","Road_ID":" ","Latitude":17.01463064,"Longitude":54.086331979999997,"GlobalID":"{D7EEE0B9-EBE4-4B05-B0D5-3211E4927165}"}},{"type":"Feature","id":30,"geometry":{"type":"Point","coordinates":[188341.36400000006,1883006.3702000007]},"properties":{"OBJECTID":30,"Asset_ID":"BKE32","Name":"مخبز","District_I":"al Wadi","Gov_ID":"Dhofar Governorate","Wlyt_ID":"Salalah","Road_ID":" ","Latitude":17.01013369,"Longitude":54.072972749999998,"GlobalID":"{51F9637F-C80C-4529-A67E-E95941F06049}"}},{"type":"Feature","id":31,"geometry":{"type":"Point","coordinates":[188678.06240000017,1884164.1954999994]},"properties":{"OBJECTID":31,"Asset_ID":"BKE33","Name":"خان الحلويات اللبنانية","District_I":"Salalah al Jadida","Gov_ID":"Dhofar Governorate","Wlyt_ID":"Salalah","Road_ID":" ","Latitude":17.02063163,"Longitude":54.075969569999998,"GlobalID":"{72CA7514-A9EE-4482-9EBE-7580738A1FE5}"}},{"type":"Feature","id":32,"geometry":{"type":"Point","coordinates":[186829.31520000007,1882579.7405999992]},"properties":{"OBJECTID":32,"Asset_ID":"BKE35","Name":"حلويات طالب","District_I":"al Wadi","Gov_ID":"Dhofar Governorate","Wlyt_ID":"Salalah","Road_ID":" ","Latitude":17.00607759,"Longitude":54.058845669999997,"GlobalID":"{10BF74FB-7070-4CD4-991A-468A1442FBC1}"}},{"type":"Feature","id":33,"geometry":{"type":"Point","coordinates":[187741.68070000038,1884233.4750999995]},"properties":{"OBJECTID":33,"Asset_ID":"BKE36","Name":"Teeba Konafa","District_I":"al Wadi","Gov_ID":"Dhofar Governorate","Wlyt_ID":"Salalah","Road_ID":" ","Latitude":17.02113048,"Longitude":54.067173410000002,"GlobalID":"{659554E2-E376-4F97-A7B5-F24E97D2D891}"}},{"type":"Feature","id":34,"geometry":{"type":"Point","coordinates":[189794.28330000024,1883579.2458999995]},"properties":{"OBJECTID":34,"Asset_ID":"BKE37","Name":"مخبز الشياح","District_I":"Salalah al Jadida","Gov_ID":"Dhofar Governorate","Wlyt_ID":"Salalah","Road_ID":" ","Latitude":17.015501230000002,"Longitude":54.086525330000001,"GlobalID":"{BBEB90C4-A67B-4009-B609-D2641343D18E}"}},{"type":"Feature","id":35,"geometry":{"type":"Point","coordinates":[187610.50339999981,1883755.4840999991]},"properties":{"OBJECTID":35,"Asset_ID":"BKE38","Name":"مخبز","District_I":"al Wadi","Gov_ID":"Dhofar Governorate","Wlyt_ID":"Salalah","Road_ID":" ","Latitude":17.0167976,"Longitude":54.066009809999997,"GlobalID":"{42B28A72-3BF4-4B92-9ACE-A77DDB8B4FA1}"}},{"type":"Feature","id":36,"geometry":{"type":"Point","coordinates":[198927.01819999982,1884813.4485999998]},"properties":{"OBJECTID":36,"Asset_ID":"BKE39","Name":"Olea","District_I":"Dahariz al Shamaliyya","Gov_ID":"Dhofar Governorate","Wlyt_ID":"Salalah","Road_ID":" ","Latitude":17.027854099999999,"Longitude":54.172056009999999,"GlobalID":"{37560D4E-7593-449E-A708-50DD2C896A50}"}},{"type":"Feature","id":37,"geometry":{"type":"Point","coordinates":[197726.5987999998,1885704.4934999999]},"properties":{"OBJECTID":37,"Asset_ID":"BKE40","Name":"مخبز","District_I":"Dahariz al Shamaliyya","Gov_ID":"Dhofar Governorate","Wlyt_ID":"Salalah","Road_ID":" ","Latitude":17.035741689999998,"Longitude":54.160669179999999,"GlobalID":"{A49C5433-BA67-42DC-908C-4CB4C857ECB7}"}},{"type":"Feature","id":38,"geometry":{"type":"Point","coordinates":[197379.44730000012,1884579.7902000006]},"properties":{"OBJECTID":38,"Asset_ID":"BKE41","Name":"Halazone Sweets And Pastries","District_I":"Dahariz al Shamaliyya","Gov_ID":"Dhofar Governorate","Wlyt_ID":"Salalah","Road_ID":" ","Latitude":17.025541919999998,"Longitude":54.157564710000003,"GlobalID":"{0B513EC7-737B-4C5A-BAAD-BE1156B3EB93}"}}]}