{"type":"FeatureCollection","crs":{"type":"name","properties":{"name":"EPSG:32640"}},"features":[{"type":"Feature","id":120,"geometry":{"type":"Point","coordinates":[186787.80179999955,1887341.0380000006]},"properties":{"OBJECTID":120,"Asset_ID":"HRD120","Name":"Ardaf building &electrics material co.l.l.c","District_ID":null,"Gov_ID":"Dhofar Governorate","Wlyt_ID":"Salalah","Road_ID":" ","Latitude":17.049054779999999,"Longitude":54.057783809999997,"GlobalID":"{F4C2C875-A267-4F21-ACB5-983A7DFA51B7}"}},{"type":"Feature","id":121,"geometry":{"type":"Point","coordinates":[184802.39350000024,1887261.1851000004]},"properties":{"OBJECTID":121,"Asset_ID":"HRD121","Name":"ورش الالمونيوم و تركيب معدات الفنادق و المطاعم و المطابخ","District_ID":"Auqad al Shamaliyya Extension","Gov_ID":"Dhofar Governorate","Wlyt_ID":"Salalah","Road_ID":" ","Latitude":17.04806297,"Longitude":54.039162939999997,"GlobalID":"{1CF686B1-B320-486A-B644-13F840F6DBA8}"}},{"type":"Feature","id":122,"geometry":{"type":"Point","coordinates":[184195.37339999992,1886392.0869999994]},"properties":{"OBJECTID":122,"Asset_ID":"HRD122","Name":"بيع مواد البناء","District_ID":"Auqad al Shamaliyya Extension","Gov_ID":"Dhofar Governorate","Wlyt_ID":"Salalah","Road_ID":" ","Latitude":17.040134160000001,"Longitude":54.033590279999999,"GlobalID":"{0BA415FF-5572-4618-AFD6-E84A71FA1FE9}"}},{"type":"Feature","id":123,"geometry":{"type":"Point","coordinates":[183083.53369999956,1886660.4418000001]},"properties":{"OBJECTID":123,"Asset_ID":"HRD123","Name":"مواد البناء","District_ID":null,"Gov_ID":"Dhofar Governorate","Wlyt_ID":"Salalah","Road_ID":" ","Latitude":17.04240398,"Longitude":54.023118429999997,"GlobalID":"{A2EF75A3-A29F-4B76-98AE-548F3CAB1DE7}"}},{"type":"Feature","id":124,"geometry":{"type":"Point","coordinates":[200776.25040000025,1894325.1506999992]},"properties":{"OBJECTID":124,"Asset_ID":"HRD124","Name":"تأجير المعدات التجارية الالات المهنية","District_ID":null,"Gov_ID":"Dhofar Governorate","Wlyt_ID":"Salalah","Road_ID":" ","Latitude":17.113971710000001,"Longitude":54.188123320000003,"GlobalID":"{7F36E294-6D44-412A-AB97-8B243A9B1187}"}},{"type":"Feature","id":125,"geometry":{"type":"Point","coordinates":[200803.28969999962,1894316.0800000001]},"properties":{"OBJECTID":125,"Asset_ID":"HRD125","Name":"بيع مواد البناء و الأدوات الكهربائية و الصحية","District_ID":null,"Gov_ID":"Dhofar Governorate","Wlyt_ID":"Salalah","Road_ID":" ","Latitude":17.113893340000001,"Longitude":54.188378419999999,"GlobalID":"{1872CA5A-ECC6-4683-A823-B4B0B0950AE2}"}},{"type":"Feature","id":126,"geometry":{"type":"Point","coordinates":[196298.37050000019,1892666.6815000009]},"properties":{"OBJECTID":126,"Asset_ID":"HRD126","Name":"بيع مواد البناء","District_ID":null,"Gov_ID":"Dhofar Governorate","Wlyt_ID":"Salalah","Road_ID":" ","Latitude":17.098410049999998,"Longitude":54.146309649999999,"GlobalID":"{8A87FBB9-1A7D-489D-AC2F-382B2ECB0390}"}},{"type":"Feature","id":127,"geometry":{"type":"Point","coordinates":[193310.61880000029,1892472.4298]},"properties":{"OBJECTID":127,"Asset_ID":"HRD127","Name":"تجارة مواد البناء و الأسمنت و الصحية و الكهربائية","District_ID":null,"Gov_ID":"Dhofar Governorate","Wlyt_ID":"Salalah","Road_ID":" ","Latitude":17.09625909,"Longitude":54.118288370000002,"GlobalID":"{C9BACDBE-7C92-4729-A1AA-289F459A802D}"}},{"type":"Feature","id":128,"geometry":{"type":"Point","coordinates":[187183.93120000046,1890481.8815000001]},"properties":{"OBJECTID":128,"Asset_ID":"HRD128","Name":"البيع بالتجزئة في المتاجر المتخصصة لمواد البناء","District_ID":null,"Gov_ID":"Dhofar Governorate","Wlyt_ID":"Salalah","Road_ID":" ","Latitude":17.07746272,"Longitude":54.061057320000003,"GlobalID":"{351409A6-6E34-424B-95B4-08D98015A12A}"}},{"type":"Feature","id":129,"geometry":{"type":"Point","coordinates":[185732.35730000027,1889132.7259]},"properties":{"OBJECTID":129,"Asset_ID":"HRD129","Name":"بيع الادوات و مواد البناء","District_ID":null,"Gov_ID":"Dhofar Governorate","Wlyt_ID":"Salalah","Road_ID":" ","Latitude":17.0650853,"Longitude":54.047624489999997,"GlobalID":"{78AE1281-573C-41AF-9B58-213638BFBC0E}"}},{"type":"Feature","id":130,"geometry":{"type":"Point","coordinates":[185720.08110000007,1889129.5590000004]},"properties":{"OBJECTID":130,"Asset_ID":"HRD130","Name":"البيع بالتجزئة في المتاجر المتخصصة لمواد البناء","District_ID":null,"Gov_ID":"Dhofar Governorate","Wlyt_ID":"Salalah","Road_ID":" ","Latitude":17.06505503,"Longitude":54.047509720000001,"GlobalID":"{A4488DDC-C445-4BEC-ADAD-A51E65EB79CC}"}},{"type":"Feature","id":131,"geometry":{"type":"Point","coordinates":[186985.64140000008,1890247.8713000007]},"properties":{"OBJECTID":131,"Asset_ID":"HRD131","Name":"ERBAA BUILDING MATERIAL","District_ID":null,"Gov_ID":"Dhofar Governorate","Wlyt_ID":"Salalah","Road_ID":" ","Latitude":17.075323189999999,"Longitude":54.059229279999997,"GlobalID":"{CB531BF0-A7F7-4E34-9A32-0DD17E7713FA}"}},{"type":"Feature","id":132,"geometry":{"type":"Point","coordinates":[185796.55680000037,1889282.8595000003]},"properties":{"OBJECTID":132,"Asset_ID":"HRD132","Name":"بيع مواد البناء و الادوات الصحية و تمديداتها","District_ID":null,"Gov_ID":"Dhofar Governorate","Wlyt_ID":"Salalah","Road_ID":" ","Latitude":17.066449389999999,"Longitude":54.048205699999997,"GlobalID":"{74E7785F-168A-474C-B189-1848E42692BA}"}},{"type":"Feature","id":133,"geometry":{"type":"Point","coordinates":[180975.65469999984,1886492.8840999994]},"properties":{"OBJECTID":133,"Asset_ID":"HRD133","Name":"بيع مواد البناء","District_ID":null,"Gov_ID":"Dhofar Governorate","Wlyt_ID":"Salalah","Road_ID":" ","Latitude":17.040600449999999,"Longitude":54.003362320000001,"GlobalID":"{61C78DF9-058C-43D5-9A31-7AA464453F06}"}},{"type":"Feature","id":134,"geometry":{"type":"Point","coordinates":[201146.13559999969,1893373.9396000002]},"properties":{"OBJECTID":134,"Asset_ID":"HRD134","Name":"بيع مواد البناء","District_ID":null,"Gov_ID":"Dhofar Governorate","Wlyt_ID":"Salalah","Road_ID":" ","Latitude":17.10543191,"Longitude":54.191725060000003,"GlobalID":"{A974D631-5964-43FF-BA8C-B358C0A4374A}"}},{"type":"Feature","id":135,"geometry":{"type":"Point","coordinates":[201180.19790000003,1893491.5989999995]},"properties":{"OBJECTID":135,"Asset_ID":"HRD135","Name":"البيع بالتجزئة في المتاجر المتخصصة لمواد البناء","District_ID":null,"Gov_ID":"Dhofar Governorate","Wlyt_ID":"Salalah","Road_ID":" ","Latitude":17.106498640000002,"Longitude":54.192028919999998,"GlobalID":"{402FA8CC-C742-446A-858D-C931625591A6}"}},{"type":"Feature","id":136,"geometry":{"type":"Point","coordinates":[201304.86359999981,1893584.6655999999]},"properties":{"OBJECTID":136,"Asset_ID":"HRD136","Name":"مواد البناء","District_ID":null,"Gov_ID":"Dhofar Governorate","Wlyt_ID":"Salalah","Road_ID":" ","Latitude":17.107355129999998,"Longitude":54.193186769999997,"GlobalID":"{1E1B412C-76A7-45F9-8834-05824863652E}"}},{"type":"Feature","id":137,"geometry":{"type":"Point","coordinates":[198492.98940000031,1896271.1381999999]},"properties":{"OBJECTID":137,"Asset_ID":"HRD137","Name":"البيع بالتجزئة في المتاجر المتخصصة لمواد البناء","District_ID":null,"Gov_ID":"Dhofar Governorate","Wlyt_ID":"Salalah","Road_ID":" ","Latitude":17.131241630000002,"Longitude":54.166419759999997,"GlobalID":"{7AD5D89E-7CE4-486A-B343-0EDC9FA193B7}"}},{"type":"Feature","id":138,"geometry":{"type":"Point","coordinates":[198000.38229999971,1884132.4000000004]},"properties":{"OBJECTID":138,"Asset_ID":"HRD138","Name":"تركيب الجبس","District_ID":"Dahariz al Shamaliyya","Gov_ID":"Dhofar Governorate","Wlyt_ID":"Salalah","Road_ID":" ","Latitude":17.02158412,"Longitude":54.16345269,"GlobalID":"{318DE726-E0DC-4791-99D0-4B1D3738EF72}"}},{"type":"Feature","id":139,"geometry":{"type":"Point","coordinates":[197605.67769999988,1883916.6422000006]},"properties":{"OBJECTID":139,"Asset_ID":"HRD139","Name":"تركيب الجبس و احجار الزينة","District_ID":"Dahariz al Shamaliyya","Gov_ID":"Dhofar Governorate","Wlyt_ID":"Salalah","Road_ID":" ","Latitude":17.019584460000001,"Longitude":54.159778119999999,"GlobalID":"{A97D41FD-31EC-4E38-9FC1-B3CB3D1090D9}"}},{"type":"Feature","id":140,"geometry":{"type":"Point","coordinates":[197542.68680000026,1883904.9658000004]},"properties":{"OBJECTID":140,"Asset_ID":"HRD140","Name":"بيع الأدوات الصحية و تمديداتها","District_ID":"Dahariz al Shamaliyya","Gov_ID":"Dhofar Governorate","Wlyt_ID":"Salalah","Road_ID":" ","Latitude":17.019470779999999,"Longitude":54.1591886,"GlobalID":"{DBF27605-AC5F-4A3D-BA7E-B23E2EB9A76F}"}},{"type":"Feature","id":141,"geometry":{"type":"Point","coordinates":[197771.6819000002,1885701.8593000006]},"properties":{"OBJECTID":141,"Asset_ID":"HRD141","Name":"العيدروس للمطابخ","District_ID":"Dahariz al Shamaliyya","Gov_ID":"Dhofar Governorate","Wlyt_ID":"Salalah","Road_ID":" ","Latitude":17.035723820000001,"Longitude":54.16109264,"GlobalID":"{AD1AC647-4B2C-43A8-9E1D-2EE85119B5E3}"}},{"type":"Feature","id":142,"geometry":{"type":"Point","coordinates":[189896.00870000012,1883807.2530000005]},"properties":{"OBJECTID":142,"Asset_ID":"HRD142","Name":"تنجيد الاثاث مثل : المراتب,المجالس العربية ,المجالس الافرنجية","District_ID":"Salalah al Jadida","Gov_ID":"Dhofar Governorate","Wlyt_ID":"Salalah","Road_ID":" ","Latitude":17.01757331,"Longitude":54.087447990000001,"GlobalID":"{9F5751B0-C514-4645-82F5-3A8A7FDC6351}"}},{"type":"Feature","id":143,"geometry":{"type":"Point","coordinates":[189572.29669999983,1884124.7426999994]},"properties":{"OBJECTID":143,"Asset_ID":"HRD143","Name":"تركيب الجبس (أحجار الزينة)","District_ID":"Salalah al Jadida","Gov_ID":"Dhofar Governorate","Wlyt_ID":"Salalah","Road_ID":" ","Latitude":17.020395990000001,"Longitude":54.084366080000002,"GlobalID":"{50555BDA-D160-438C-AD6E-E9FD04C4FB42}"}},{"type":"Feature","id":144,"geometry":{"type":"Point","coordinates":[189595.87990000006,1884219.2291999999]},"properties":{"OBJECTID":144,"Asset_ID":"HRD144","Name":"Curtain Sofa Shop Dimond Gulf Gate\r\n","District_ID":"Salalah al Jadida","Gov_ID":"Dhofar Governorate","Wlyt_ID":"Salalah","Road_ID":" ","Latitude":17.02125217,"Longitude":54.084574160000003,"GlobalID":"{C6A90914-BF48-444B-97E0-2EFAA534E967}"}},{"type":"Feature","id":145,"geometry":{"type":"Point","coordinates":[189623.22719999962,1883960.9662999995]},"properties":{"OBJECTID":145,"Asset_ID":"HRD145","Name":"Mana Al Kutaini Building Materials\r\n","District_ID":"Salalah al Jadida","Gov_ID":"Dhofar Governorate","Wlyt_ID":"Salalah","Road_ID":" ","Latitude":17.018924309999999,"Longitude":54.084866900000002,"GlobalID":"{12686214-5734-4681-B661-A269DDB89029}"}},{"type":"Feature","id":146,"geometry":{"type":"Point","coordinates":[189625.83899999969,1883915.1826000009]},"properties":{"OBJECTID":146,"Asset_ID":"HRD146","Name":"شيخ المطابخ","District_ID":"Salalah al Jadida","Gov_ID":"Dhofar Governorate","Wlyt_ID":"Salalah","Road_ID":" ","Latitude":17.01851134,"Longitude":54.084897810000001,"GlobalID":"{B93E9F6E-6981-4BD4-82A0-2871A25CCCC7}"}},{"type":"Feature","id":147,"geometry":{"type":"Point","coordinates":[189594.57400000002,1883892.2907999996]},"properties":{"OBJECTID":147,"Asset_ID":"HRD147","Name":"تجارة الأدوات الصحية و تمديداتها و تجارة الأدوات الكهربائية و تمديداتها","District_ID":"Salalah al Jadida","Gov_ID":"Dhofar Governorate","Wlyt_ID":"Salalah","Road_ID":" ","Latitude":17.01830047,"Longitude":54.084607640000002,"GlobalID":"{A9FC7CD3-2E71-4B49-A5D2-67DA5280B7CE}"}},{"type":"Feature","id":148,"geometry":{"type":"Point","coordinates":[189602.33260000031,1883828.6853]},"properties":{"OBJECTID":148,"Asset_ID":"HRD148","Name":"Mumtaz Kitchens\r\n","District_ID":"Salalah al Jadida","Gov_ID":"Dhofar Governorate","Wlyt_ID":"Salalah","Road_ID":" ","Latitude":17.017727300000001,"Longitude":54.084689330000003,"GlobalID":"{C6F5ABA3-6632-4AC0-B327-66883012F616}"}},{"type":"Feature","id":149,"geometry":{"type":"Point","coordinates":[189634.13540000003,1883832.6798999999]},"properties":{"OBJECTID":149,"Asset_ID":"HRD149","Name":"شام للمطابخ\r\n","District_ID":"Salalah al Jadida","Gov_ID":"Dhofar Governorate","Wlyt_ID":"Salalah","Road_ID":" ","Latitude":17.017767639999999,"Longitude":54.08498719,"GlobalID":"{9FCCDCA6-1702-42F3-9A1C-29B82C919732}"}},{"type":"Feature","id":150,"geometry":{"type":"Point","coordinates":[189611.55080000032,1883753.7106999997]},"properties":{"OBJECTID":150,"Asset_ID":"HRD150","Name":"سمائل لمواد البناء\r\n","District_ID":"Salalah al Jadida","Gov_ID":"Dhofar Governorate","Wlyt_ID":"Salalah","Road_ID":" ","Latitude":17.017051680000002,"Longitude":54.084786319999999,"GlobalID":"{185BA680-EC25-4AE2-B8FA-5274BBD3A63C}"}},{"type":"Feature","id":151,"geometry":{"type":"Point","coordinates":[189659.17810000014,1883674.4342999998]},"properties":{"OBJECTID":151,"Asset_ID":"HRD151","Name":"مواد بناء","District_ID":"Salalah al Jadida","Gov_ID":"Dhofar Governorate","Wlyt_ID":"Salalah","Road_ID":" ","Latitude":17.016342399999999,"Longitude":54.085244299999999,"GlobalID":"{55C4F1EB-0E55-45EC-8599-9F4C6CB567E0}"}},{"type":"Feature","id":152,"geometry":{"type":"Point","coordinates":[189660.0998999998,1883473.6315000001]},"properties":{"OBJECTID":152,"Asset_ID":"HRD152","Name":"بيع مواد البناء و الأدوات الصحية و تمديداتها","District_ID":"Salalah al Jadida","Gov_ID":"Dhofar Governorate","Wlyt_ID":"Salalah","Road_ID":" ","Latitude":17.014529719999999,"Longitude":54.085281019999996,"GlobalID":"{AD2654F2-D13A-47DA-AC3B-22917E56502D}"}},{"type":"Feature","id":153,"geometry":{"type":"Point","coordinates":[189663.78720000014,1883450.2786999997]},"properties":{"OBJECTID":153,"Asset_ID":"HRD153","Name":"بيع مواد البناء","District_ID":"Salalah al Jadida","Gov_ID":"Dhofar Governorate","Wlyt_ID":"Salalah","Road_ID":" ","Latitude":17.014319390000001,"Longitude":54.085318890000003,"GlobalID":"{8CE73AD6-B06F-4EF7-B680-AD9DDCBF87E6}"}},{"type":"Feature","id":154,"geometry":{"type":"Point","coordinates":[189677.53770000022,1883367.2381999996]},"properties":{"OBJECTID":154,"Asset_ID":"HRD154","Name":"الرعود لمواد البناء","District_ID":"Salalah al Jadida","Gov_ID":"Dhofar Governorate","Wlyt_ID":"Salalah","Road_ID":" ","Latitude":17.01357157,"Longitude":54.085459520000001,"GlobalID":"{48796DE3-8E54-4504-B420-D65714D916EB}"}},{"type":"Feature","id":155,"geometry":{"type":"Point","coordinates":[189748.82500000019,1883316.0772999991]},"properties":{"OBJECTID":155,"Asset_ID":"HRD155","Name":"بيع ورق الحائط و كسوة الأرضيات و تركيب الجبس(أحجار الزينة)","District_ID":"Salalah al Gharbiyya","Gov_ID":"Dhofar Governorate","Wlyt_ID":"Salalah","Road_ID":" ","Latitude":17.013119289999999,"Longitude":54.086135570000003,"GlobalID":"{460786FA-593C-47A6-9B6B-71FEFC845A9D}"}},{"type":"Feature","id":156,"geometry":{"type":"Point","coordinates":[189741.45040000044,1883348.4945999999]},"properties":{"OBJECTID":156,"Asset_ID":"HRD156","Name":"بيع ورق الحائط و كسوة الأرضيات و تركيب الجبس","District_ID":"Salalah al Jadida","Gov_ID":"Dhofar Governorate","Wlyt_ID":"Salalah","Road_ID":" ","Latitude":17.013410950000001,"Longitude":54.086061839999999,"GlobalID":"{70199762-35A2-4F49-81F6-8C643C913135}"}},{"type":"Feature","id":157,"geometry":{"type":"Point","coordinates":[189821.80229999963,1883340.3519000001]},"properties":{"OBJECTID":157,"Asset_ID":"HRD157","Name":"تركيب الجبس (أحجار الزينة ) و بيع ورق الحائط و كسوة الأرضيات","District_ID":"Salalah al Gharbiyya","Gov_ID":"Dhofar Governorate","Wlyt_ID":"Salalah","Road_ID":" ","Latitude":17.01334825,"Longitude":54.086816929999998,"GlobalID":"{79295C07-BA57-412A-8EB6-95EE19C6E295}"}},{"type":"Feature","id":158,"geometry":{"type":"Point","coordinates":[189832.24959999975,1883343.2709999997]},"properties":{"OBJECTID":158,"Asset_ID":"HRD158","Name":"بيع ورق الحائط و كسوة الأرضيات","District_ID":"Salalah al Gharbiyya","Gov_ID":"Dhofar Governorate","Wlyt_ID":"Salalah","Road_ID":" ","Latitude":17.013376000000001,"Longitude":54.086914550000003,"GlobalID":"{2D318CFB-987A-4EBD-9219-7B44E6AAD65D}"}},{"type":"Feature","id":159,"geometry":{"type":"Point","coordinates":[190092.97059999965,1883458.8056000005]},"properties":{"OBJECTID":159,"Asset_ID":"HRD159","Name":"مركز الارتحال للتجارة (ستائر و ورق الحائط)","District_ID":"Salalah al Jadida","Gov_ID":"Dhofar Governorate","Wlyt_ID":"Salalah","Road_ID":" ","Latitude":17.014454059999998,"Longitude":54.08934481,"GlobalID":"{8656FA9A-210B-4B51-87BA-58860881E5B5}"}},{"type":"Feature","id":160,"geometry":{"type":"Point","coordinates":[189690.13590000011,1883298.5626999997]},"properties":{"OBJECTID":160,"Asset_ID":"HRD160","Name":"تجارة ورق الحائط و كسوة الأرضيات","District_ID":"Salalah al Gharbiyya","Gov_ID":"Dhofar Governorate","Wlyt_ID":"Salalah","Road_ID":" ","Latitude":17.012953280000001,"Longitude":54.085587330000003,"GlobalID":"{4A0D57E7-0B31-4693-823F-9D5099FB128A}"}},{"type":"Feature","id":161,"geometry":{"type":"Point","coordinates":[189684.91220000014,1883297.4872999992]},"properties":{"OBJECTID":161,"Asset_ID":"HRD161","Name":"بيع وتركيب ورق الحائط","District_ID":"Salalah al Gharbiyya","Gov_ID":"Dhofar Governorate","Wlyt_ID":"Salalah","Road_ID":" ","Latitude":17.01294287,"Longitude":54.085538460000002,"GlobalID":"{9E034CB0-C807-41EE-B859-3D5D7CD22DED}"}},{"type":"Feature","id":162,"geometry":{"type":"Point","coordinates":[189680.30310000014,1883295.6436999999]},"properties":{"OBJECTID":162,"Asset_ID":"HRD162","Name":"بيع ورق الحائط و كسوة الأرضيات","District_ID":"Salalah al Gharbiyya","Gov_ID":"Dhofar Governorate","Wlyt_ID":"Salalah","Road_ID":" ","Latitude":17.012925599999999,"Longitude":54.085495469999998,"GlobalID":"{1EB8F5C5-C3D7-4B04-9A6D-3B43234028C5}"}},{"type":"Feature","id":163,"geometry":{"type":"Point","coordinates":[189679.07400000002,1883329.4437000006]},"properties":{"OBJECTID":163,"Asset_ID":"HRD163","Name":"بيع ورق الحائط و كسوة الأرضيات","District_ID":"Salalah al Jadida","Gov_ID":"Dhofar Governorate","Wlyt_ID":"Salalah","Road_ID":" ","Latitude":17.013230579999998,"Longitude":54.085479220000003,"GlobalID":"{0F4C7945-22DF-4970-911C-6A4DA75AF267}"}},{"type":"Feature","id":164,"geometry":{"type":"Point","coordinates":[189672.31400000025,1883328.2146000005]},"properties":{"OBJECTID":164,"Asset_ID":"HRD164","Name":"تركيب الجبس و بيع ورق الحائط و كسوة الأرضيات و قص و تفصيل الستائر","District_ID":"Salalah al Jadida","Gov_ID":"Dhofar Governorate","Wlyt_ID":"Salalah","Road_ID":" ","Latitude":17.013218569999999,"Longitude":54.085415959999999,"GlobalID":"{DD3FA3A4-E9E6-4201-9E75-DEECB97BC6A8}"}},{"type":"Feature","id":165,"geometry":{"type":"Point","coordinates":[189675.65560000017,1883328.8290999997]},"properties":{"OBJECTID":165,"Asset_ID":"HRD165","Name":"بيع ورق الحائط و كسوة الأرضيات","District_ID":"Salalah al Jadida","Gov_ID":"Dhofar Governorate","Wlyt_ID":"Salalah","Road_ID":" ","Latitude":17.013224569999998,"Longitude":54.08544723,"GlobalID":"{AE4F3B02-9111-4B5F-AF21-55E2A5A325B4}"}},{"type":"Feature","id":166,"geometry":{"type":"Point","coordinates":[189652.34130000044,1883322.8373000007]},"properties":{"OBJECTID":166,"Asset_ID":"HRD166","Name":"تركيب الجبس (أحجار الزينة)","District_ID":"Salalah al Jadida","Gov_ID":"Dhofar Governorate","Wlyt_ID":"Salalah","Road_ID":" ","Latitude":17.013167339999999,"Longitude":54.085229300000002,"GlobalID":"{55632E9A-70EC-4025-AB4B-A0B299F333F3}"}},{"type":"Feature","id":167,"geometry":{"type":"Point","coordinates":[189648.6540000001,1883321.9155000001]},"properties":{"OBJECTID":167,"Asset_ID":"HRD167","Name":"بيع ورق الحائط و كسوة الأرضيات","District_ID":"Salalah al Jadida","Gov_ID":"Dhofar Governorate","Wlyt_ID":"Salalah","Road_ID":" ","Latitude":17.013158520000001,"Longitude":54.08519484,"GlobalID":"{9352525A-C9F4-4292-943C-16A8A481B028}"}},{"type":"Feature","id":168,"geometry":{"type":"Point","coordinates":[189558.00850000046,1883310.8537000008]},"properties":{"OBJECTID":168,"Asset_ID":"HRD168","Name":"بن الشيداد (تنجيد المقاعد و خياطة الستائر)","District_ID":"Salalah al Jadida","Gov_ID":"Dhofar Governorate","Wlyt_ID":"Salalah","Road_ID":" ","Latitude":17.013046469999999,"Longitude":54.084345849999998,"GlobalID":"{1C326B99-3EA9-4431-9417-82C28392EE7C}"}},{"type":"Feature","id":169,"geometry":{"type":"Point","coordinates":[189549.25119999982,1883309.0099999998]},"properties":{"OBJECTID":169,"Asset_ID":"HRD169","Name":"بهجة مرباط(تنجيد المقاعد)","District_ID":"Salalah al Jadida","Gov_ID":"Dhofar Governorate","Wlyt_ID":"Salalah","Road_ID":" ","Latitude":17.013028640000002,"Longitude":54.084263929999999,"GlobalID":"{FA2991CE-48E8-48C3-865E-6E3EC6CD2C41}"}},{"type":"Feature","id":170,"geometry":{"type":"Point","coordinates":[189505.33559999987,1883288.7177000009]},"properties":{"OBJECTID":170,"Asset_ID":"HRD170","Name":"خوار (قص و تفصيل الستائر و تنجيد الأثاث)","District_ID":"Salalah al Jadida","Gov_ID":"Dhofar Governorate","Wlyt_ID":"Salalah","Road_ID":" ","Latitude":17.012839540000002,"Longitude":54.083854709999997,"GlobalID":"{8792A9F6-05BC-4FE7-8590-983B754FF2C2}"}},{"type":"Feature","id":171,"geometry":{"type":"Point","coordinates":[189558.00850000046,1883254.6227000002]},"properties":{"OBJECTID":171,"Asset_ID":"HRD171","Name":"مراحب المدينة(تجارة ورق الحائط و كسوة الأرضيات)","District_ID":"Salalah al Gharbiyya","Gov_ID":"Dhofar Governorate","Wlyt_ID":"Salalah","Road_ID":" ","Latitude":17.01253883,"Longitude":54.084353710000002,"GlobalID":"{B26AF4FE-FB2E-4A2A-A33A-270EF41E23B7}"}},{"type":"Feature","id":172,"geometry":{"type":"Point","coordinates":[189519.90670000017,1883244.3290999997]},"properties":{"OBJECTID":172,"Asset_ID":"HRD172","Name":"تنجيد الاثاث مثل المراتب المجالس العربية المجالس الأفرنجية","District_ID":"Salalah al Gharbiyya","Gov_ID":"Dhofar Governorate","Wlyt_ID":"Salalah","Road_ID":" ","Latitude":17.012440770000001,"Longitude":54.08399764,"GlobalID":"{B4D2573E-68CA-458E-9E6B-A186D169522F}"}},{"type":"Feature","id":173,"geometry":{"type":"Point","coordinates":[189411.43929999974,1883281.8164000008]},"properties":{"OBJECTID":173,"Asset_ID":"HRD173","Name":"تنجيد المقاعد و تفصيل الستائر","District_ID":"Salalah al Jadida","Gov_ID":"Dhofar Governorate","Wlyt_ID":"Salalah","Road_ID":" ","Latitude":17.012764600000001,"Longitude":54.082974640000003,"GlobalID":"{783E005B-DE6C-4699-B57C-0EB64A5911DE}"}},{"type":"Feature","id":174,"geometry":{"type":"Point","coordinates":[189378.10020000022,1883185.4863000009]},"properties":{"OBJECTID":174,"Asset_ID":"HRD174","Name":"عبد الرسول (قص و تفصيل الستائر)","District_ID":"Salalah al Gharbiyya","Gov_ID":"Dhofar Governorate","Wlyt_ID":"Salalah","Road_ID":" ","Latitude":17.011890470000001,"Longitude":54.082675289999997,"GlobalID":"{28993D51-6355-4EEB-88B3-E293F62663FE}"}},{"type":"Feature","id":175,"geometry":{"type":"Point","coordinates":[189235.21829999983,1883149.9963000007]},"properties":{"OBJECTID":175,"Asset_ID":"HRD175","Name":"قص و تفصيل الستائر تنجيد الأثاث","District_ID":"Salalah al Gharbiyya","Gov_ID":"Dhofar Governorate","Wlyt_ID":"Salalah","Road_ID":" ","Latitude":17.011550840000002,"Longitude":54.081339589999999,"GlobalID":"{DAD57170-FDFA-4F7B-9024-01285D6E9356}"}},{"type":"Feature","id":176,"geometry":{"type":"Point","coordinates":[189226.46109999996,1883189.9418000001]},"properties":{"OBJECTID":176,"Asset_ID":"HRD176","Name":"الجودة لتنجيد الأثاث","District_ID":"Salalah al Jadida","Gov_ID":"Dhofar Governorate","Wlyt_ID":"Salalah","Road_ID":" ","Latitude":17.011910279999999,"Longitude":54.081251829999999,"GlobalID":"{3043ADEB-ABF6-418D-A58C-AAA97E394FFE}"}},{"type":"Feature","id":177,"geometry":{"type":"Point","coordinates":[189212.01919999998,1883186.8690000009]},"properties":{"OBJECTID":177,"Asset_ID":"HRD177","Name":"مراحب الوطنية لتنجيد الأثاث","District_ID":"Salalah al Jadida","Gov_ID":"Dhofar Governorate","Wlyt_ID":"Salalah","Road_ID":" ","Latitude":17.011880590000001,"Longitude":54.08111675,"GlobalID":"{D15C01AD-4796-4CFA-92E3-F97CF8347F19}"}},{"type":"Feature","id":178,"geometry":{"type":"Point","coordinates":[189095.10190000013,1883158.2927000001]},"properties":{"OBJECTID":178,"Asset_ID":"HRD178","Name":"قص و تفصيل الستائر","District_ID":"Salalah al Jadida","Gov_ID":"Dhofar Governorate","Wlyt_ID":"Salalah","Road_ID":" ","Latitude":17.011606860000001,"Longitude":54.08002372,"GlobalID":"{DA8960A8-703E-483F-A3D2-489B653F9B7D}"}},{"type":"Feature","id":179,"geometry":{"type":"Point","coordinates":[189065.91100000031,1883147.2307999991]},"properties":{"OBJECTID":179,"Asset_ID":"HRD179","Name":"الهيبة العالمية (تنجيد الاثاث)","District_ID":"Salalah al Jadida","Gov_ID":"Dhofar Governorate","Wlyt_ID":"Salalah","Road_ID":" ","Latitude":17.01150307,"Longitude":54.079751369999997,"GlobalID":"{5EEF3587-D97C-45DF-BCC0-7A7FA21D277C}"}},{"type":"Feature","id":180,"geometry":{"type":"Point","coordinates":[188342.28330000024,1882989.0621000007]},"properties":{"OBJECTID":180,"Asset_ID":"HRD180","Name":"تجارة مواد البناء","District_ID":"al Wadi","Gov_ID":"Dhofar Governorate","Wlyt_ID":"Salalah","Road_ID":" ","Latitude":17.009977559999999,"Longitude":54.072983809999997,"GlobalID":"{1C87F07F-3ACA-477F-A8F9-9BE40EE6C8F5}"}},{"type":"Feature","id":181,"geometry":{"type":"Point","coordinates":[188341.97599999979,1883017.7920999993]},"properties":{"OBJECTID":181,"Asset_ID":"HRD181","Name":"بيع مواد البناء","District_ID":"al Wadi","Gov_ID":"Dhofar Governorate","Wlyt_ID":"Salalah","Road_ID":" ","Latitude":17.010236880000001,"Longitude":54.07297689,"GlobalID":"{C3D13AEC-D8B5-4BAC-881B-FC71C9CCDC37}"}},{"type":"Feature","id":182,"geometry":{"type":"Point","coordinates":[188340.51649999991,1883068.3385000005]},"properties":{"OBJECTID":182,"Asset_ID":"HRD182","Name":"بيع مواد البناء","District_ID":"al Wadi","Gov_ID":"Dhofar Governorate","Wlyt_ID":"Salalah","Road_ID":" ","Latitude":17.010693,"Longitude":54.072956099999999,"GlobalID":"{4AE68958-971D-440C-B91E-63CF201AEB4A}"}},{"type":"Feature","id":183,"geometry":{"type":"Point","coordinates":[188340.36280000024,1883072.3331000004]},"properties":{"OBJECTID":183,"Asset_ID":"HRD183","Name":"بيع مواد البناء","District_ID":"al Wadi","Gov_ID":"Dhofar Governorate","Wlyt_ID":"Salalah","Road_ID":" ","Latitude":17.010729040000001,"Longitude":54.072954099999997,"GlobalID":"{2E1B8ACB-A556-48D7-A044-8FBF5E6F1AF4}"}},{"type":"Feature","id":184,"geometry":{"type":"Point","coordinates":[188340.82380000036,1883080.6294]},"properties":{"OBJECTID":184,"Asset_ID":"HRD184","Name":"الكهرباء,الصحيةو مواد البناء","District_ID":"al Wadi","Gov_ID":"Dhofar Governorate","Wlyt_ID":"Salalah","Road_ID":" ","Latitude":17.010804,"Longitude":54.072957260000003,"GlobalID":"{929CA1E3-9452-47FA-8EC0-991CC8570DE5}"}},{"type":"Feature","id":185,"geometry":{"type":"Point","coordinates":[188374.47009999957,1883142.8521999996]},"properties":{"OBJECTID":185,"Asset_ID":"HRD185","Name":"تجارة مواد البناء","District_ID":"Salalah al Jadida","Gov_ID":"Dhofar Governorate","Wlyt_ID":"Salalah","Road_ID":" ","Latitude":17.01137027,"Longitude":54.073264229999999,"GlobalID":"{92C9DA07-EC96-402C-AE8B-1C88F23AC245}"}},{"type":"Feature","id":186,"geometry":{"type":"Point","coordinates":[188338.51919999998,1883137.9357999992]},"properties":{"OBJECTID":186,"Asset_ID":"HRD186","Name":"مواد البناء و المواد الكهربائية والصحية و الأصباغ","District_ID":"al Wadi","Gov_ID":"Dhofar Governorate","Wlyt_ID":"Salalah","Road_ID":" ","Latitude":17.011321039999999,"Longitude":54.072927589999999,"GlobalID":"{DE4AEE0E-3D32-4992-BF43-B9807C696D23}"}},{"type":"Feature","id":187,"geometry":{"type":"Point","coordinates":[189314.22589999996,1883799.3792000003]},"properties":{"OBJECTID":187,"Asset_ID":"HRD187","Name":"بيع ورق الحائط و كسوة الارضيات","District_ID":"Salalah al Jadida","Gov_ID":"Dhofar Governorate","Wlyt_ID":"Salalah","Road_ID":" ","Latitude":17.01742394,"Longitude":54.081990040000001,"GlobalID":"{F7D6200F-D30B-441C-8F08-0859F2ECF774}"}},{"type":"Feature","id":188,"geometry":{"type":"Point","coordinates":[189293.56180000026,1883797.6892000008]},"properties":{"OBJECTID":188,"Asset_ID":"HRD188","Name":"Diamond stone salalah\r\n(بيع مواد البناء و منتجات الديكور و الاسقف الصناعية)","District_ID":"Salalah al Jadida","Gov_ID":"Dhofar Governorate","Wlyt_ID":"Salalah","Road_ID":" ","Latitude":17.0174059,"Longitude":54.08179638,"GlobalID":"{933E5849-2599-477F-874F-D9A690C6BDD8}"}},{"type":"Feature","id":189,"geometry":{"type":"Point","coordinates":[189278.27500000037,1883795.3846000005]},"properties":{"OBJECTID":189,"Asset_ID":"HRD189","Name":"تنجيد مقاعد السيارات","District_ID":"Salalah al Jadida","Gov_ID":"Dhofar Governorate","Wlyt_ID":"Salalah","Road_ID":" ","Latitude":17.017383039999999,"Longitude":54.081653260000003,"GlobalID":"{F143482D-F08B-471C-A17D-45C17386B37C}"}},{"type":"Feature","id":190,"geometry":{"type":"Point","coordinates":[189153.75260000024,1883925.8220000006]},"properties":{"OBJECTID":190,"Asset_ID":"HRD190","Name":"GHAYOOM AL JANOOB BUILDGING METERIALS","District_ID":"Salalah al Jadida","Gov_ID":"Dhofar Governorate","Wlyt_ID":"Salalah","Road_ID":" ","Latitude":17.018543820000001,"Longitude":54.080466559999998,"GlobalID":"{6C6A8F05-B0B0-42F0-AB1D-1F4D2BF01738}"}},{"type":"Feature","id":191,"geometry":{"type":"Point","coordinates":[189131.47530000005,1884104.6547999997]},"properties":{"OBJECTID":191,"Asset_ID":"HRD191","Name":"قص و تفصيل الستائر و تنجيد الاثاث","District_ID":"Salalah al Jadida","Gov_ID":"Dhofar Governorate","Wlyt_ID":"Salalah","Road_ID":" ","Latitude":17.02015527,"Longitude":54.080232469999999,"GlobalID":"{37C1F7BF-A1E1-496C-8C22-A281C902D429}"}},{"type":"Feature","id":192,"geometry":{"type":"Point","coordinates":[189133.01169999968,1884099.8921000008]},"properties":{"OBJECTID":192,"Asset_ID":"HRD192","Name":"وضع او تركيب عوازل الرطوبة و عوازل المياه","District_ID":"Salalah al Jadida","Gov_ID":"Dhofar Governorate","Wlyt_ID":"Salalah","Road_ID":" ","Latitude":17.020112480000002,"Longitude":54.080247559999997,"GlobalID":"{B7A7D713-8C76-45E2-A00F-D103B4816580}"}},{"type":"Feature","id":193,"geometry":{"type":"Point","coordinates":[189123.17899999954,1884205.4403000008]},"properties":{"OBJECTID":193,"Asset_ID":"HRD193","Name":"اللمية لتفصيل الستائر و تنجيد المقاعد","District_ID":"Salalah al Jadida","Gov_ID":"Dhofar Governorate","Wlyt_ID":"Salalah","Road_ID":" ","Latitude":17.021064020000001,"Longitude":54.08014051,"GlobalID":"{B39C2CCC-16B2-4064-B9D7-47F4994E866A}"}},{"type":"Feature","id":194,"geometry":{"type":"Point","coordinates":[189098.94280000031,1883774.4132000003]},"properties":{"OBJECTID":194,"Asset_ID":"HRD194","Name":"اخصائي الديكور الداخلي","District_ID":"Salalah al Jadida","Gov_ID":"Dhofar Governorate","Wlyt_ID":"Salalah","Road_ID":" ","Latitude":17.017169549999998,"Longitude":54.079973469999999,"GlobalID":"{9C2154C5-3089-4C55-9245-21F8FBAAA67A}"}},{"type":"Feature","id":195,"geometry":{"type":"Point","coordinates":[189552.40079999994,1883790.5450999998]},"properties":{"OBJECTID":195,"Asset_ID":"HRD195","Name":"المحيط هوم (المونيوم المطابخ)","District_ID":"Salalah al Jadida","Gov_ID":"Dhofar Governorate","Wlyt_ID":"Salalah","Road_ID":" ","Latitude":17.017376259999999,"Longitude":54.084226139999998,"GlobalID":"{9BC92478-E748-4E47-9666-76097B5C5631}"}},{"type":"Feature","id":196,"geometry":{"type":"Point","coordinates":[189569.45440000016,1883791.3132000007]},"properties":{"OBJECTID":196,"Asset_ID":"HRD196","Name":"تجارة ورق الحائط و كسوة الأرضيات أخصائي الديكور الداخلي/تركيب الجبس","District_ID":"Salalah al Jadida","Gov_ID":"Dhofar Governorate","Wlyt_ID":"Salalah","Road_ID":" ","Latitude":17.017385480000002,"Longitude":54.084386049999999,"GlobalID":"{1D6986BC-2BE5-401C-9FB2-6A92E8AA1F1A}"}},{"type":"Feature","id":197,"geometry":{"type":"Point","coordinates":[189580.51630000025,1883792.3886999991]},"properties":{"OBJECTID":197,"Asset_ID":"HRD197","Name":"Dubai Kitchens\r\n","District_ID":"Salalah al Jadida","Gov_ID":"Dhofar Governorate","Wlyt_ID":"Salalah","Road_ID":" ","Latitude":17.017396680000001,"Longitude":54.084489699999999,"GlobalID":"{D9D6E9A3-EBB1-4349-9FD7-7EBDA5087573}"}},{"type":"Feature","id":198,"geometry":{"type":"Point","coordinates":[189594.34350000042,1883793.3104999997]},"properties":{"OBJECTID":198,"Asset_ID":"HRD198","Name":"بيع الأدوات الكهربائية و تمديداتها","District_ID":"Salalah al Jadida","Gov_ID":"Dhofar Governorate","Wlyt_ID":"Salalah","Road_ID":" ","Latitude":17.017406860000001,"Longitude":54.084619320000002,"GlobalID":"{F7FC1C6E-188E-4C26-9444-2AF7B450D21E}"}},{"type":"Feature","id":199,"geometry":{"type":"Point","coordinates":[189031.11230000015,1883714.7255000006]},"properties":{"OBJECTID":199,"Asset_ID":"HRD199","Name":"بيع المواد الكهربائية ة الصحية و تمديداتها و الدهانات و الطلاء","District_ID":"Salalah al Jadida","Gov_ID":"Dhofar Governorate","Wlyt_ID":"Salalah","Road_ID":" ","Latitude":17.016621570000002,"Longitude":54.079345359999998,"GlobalID":"{E7F62E69-1B26-41A8-9F34-92ADD5CA3011}"}},{"type":"Feature","id":200,"geometry":{"type":"Point","coordinates":[188781.83719999995,1883732.8545999993]},"properties":{"OBJECTID":200,"Asset_ID":"HRD200","Name":"بيع ورق الحائط و كسوة الارضيات","District_ID":"Salalah al Jadida","Gov_ID":"Dhofar Governorate","Wlyt_ID":"Salalah","Road_ID":" ","Latitude":17.016751620000001,"Longitude":54.077003820000002,"GlobalID":"{C0493B2F-52B4-4192-9A7E-440FDF55BEC2}"}},{"type":"Feature","id":201,"geometry":{"type":"Point","coordinates":[189646.57990000024,1883833.4096000008]},"properties":{"OBJECTID":201,"Asset_ID":"HRD201","Name":"ستايل للمطابخ","District_ID":"Salalah al Jadida","Gov_ID":"Dhofar Governorate","Wlyt_ID":"Salalah","Road_ID":" ","Latitude":17.0177759,"Longitude":54.085103859999997,"GlobalID":"{354BD063-210B-4790-B8FD-467DEAD94161}"}},{"type":"Feature","id":202,"geometry":{"type":"Point","coordinates":[189652.72539999988,1883799.9168999996]},"properties":{"OBJECTID":202,"Asset_ID":"HRD202","Name":"رزان للمطابخ","District_ID":"Salalah al Jadida","Gov_ID":"Dhofar Governorate","Wlyt_ID":"Salalah","Road_ID":" ","Latitude":17.017474360000001,"Longitude":54.085166209999997,"GlobalID":"{AABFD654-77B2-45F4-86EE-43A93BFFDEFB}"}},{"type":"Feature","id":203,"geometry":{"type":"Point","coordinates":[189887.37629999965,1883361.5344999991]},"properties":{"OBJECTID":203,"Asset_ID":"HRD203","Name":"نسخ المفاتيح","District_ID":"Salalah al Gharbiyya","Gov_ID":"Dhofar Governorate","Wlyt_ID":"Salalah","Road_ID":" ","Latitude":17.013548289999999,"Longitude":54.08742926,"GlobalID":"{BD8638D8-346A-47ED-807E-291A338B8C90}"}},{"type":"Feature","id":204,"geometry":{"type":"Point","coordinates":[189232.35209999979,1883491.2949000001]},"properties":{"OBJECTID":204,"Asset_ID":"HRD204","Name":"بيع مواد البناء","District_ID":"Salalah al Jadida","Gov_ID":"Dhofar Governorate","Wlyt_ID":"Salalah","Road_ID":" ","Latitude":17.014631609999999,"Longitude":54.081264930000003,"GlobalID":"{0888CC08-59C3-4859-A695-2FEA4874ED81}"}},{"type":"Feature","id":205,"geometry":{"type":"Point","coordinates":[189213.94450000022,1883410.0164000001]},"properties":{"OBJECTID":205,"Asset_ID":"HRD205","Name":"اعمال الجبس (احجار الزينة)","District_ID":"Salalah al Jadida","Gov_ID":"Dhofar Governorate","Wlyt_ID":"Salalah","Road_ID":" ","Latitude":17.01389537,"Longitude":54.081103579999997,"GlobalID":"{D0895135-0098-4766-81AA-AC9408C96CEE}"}},{"type":"Feature","id":206,"geometry":{"type":"Point","coordinates":[189215.2407999998,1883404.9607999995]},"properties":{"OBJECTID":206,"Asset_ID":"HRD206","Name":"تركيب الجبس و بيع ورق الحائط و كسوة الأرضيات","District_ID":"Salalah al Jadida","Gov_ID":"Dhofar Governorate","Wlyt_ID":"Salalah","Road_ID":" ","Latitude":17.0138499,"Longitude":54.081116450000003,"GlobalID":"{3ACF782E-26DA-4F6B-9D24-2A1B40EC03C7}"}},{"type":"Feature","id":207,"geometry":{"type":"Point","coordinates":[189216.53710000031,1883401.0719000008]},"properties":{"OBJECTID":207,"Asset_ID":"HRD207","Name":"تركيب الجبس","District_ID":"Salalah al Jadida","Gov_ID":"Dhofar Governorate","Wlyt_ID":"Salalah","Road_ID":" ","Latitude":17.013814969999999,"Longitude":54.081129160000003,"GlobalID":"{14D3FC5D-39A4-46A5-A4AB-3A6D70B59507}"}},{"type":"Feature","id":208,"geometry":{"type":"Point","coordinates":[189235.59279999975,1883309.6821999997]},"properties":{"OBJECTID":208,"Asset_ID":"HRD208","Name":"تركيب الجبس بيع اوراق الحائط و كسوة الأرضيات","District_ID":"Salalah al Jadida","Gov_ID":"Dhofar Governorate","Wlyt_ID":"Salalah","Road_ID":" ","Latitude":17.012992489999998,"Longitude":54.081320759999997,"GlobalID":"{3D8A7613-D0D8-4652-B111-F72765E66F2C}"}},{"type":"Feature","id":209,"geometry":{"type":"Point","coordinates":[187788.97840000037,1883810.9642999992]},"properties":{"OBJECTID":209,"Asset_ID":"HRD209","Name":"مواد صحية الكهربائية ,مواد البناء","District_ID":"al Wadi","Gov_ID":"Dhofar Governorate","Wlyt_ID":"Salalah","Road_ID":" ","Latitude":17.017322610000001,"Longitude":54.067676659999997,"GlobalID":"{B3D00244-0927-4699-8E69-7E15F5C87178}"}},{"type":"Feature","id":210,"geometry":{"type":"Point","coordinates":[187776.33939999994,1883806.4920000006]},"properties":{"OBJECTID":210,"Asset_ID":"HRD210","Name":"بيع مواد البناء","District_ID":"al Wadi","Gov_ID":"Dhofar Governorate","Wlyt_ID":"Salalah","Road_ID":" ","Latitude":17.017280530000001,"Longitude":54.067558689999998,"GlobalID":"{1111AF2F-1BD4-4A42-8B28-C48A3FB3EE33}"}},{"type":"Feature","id":211,"geometry":{"type":"Point","coordinates":[187662.19959999993,1883777.1306999996]},"properties":{"OBJECTID":211,"Asset_ID":"HRD211","Name":"بيع مواد البناء","District_ID":"al Wadi","Gov_ID":"Dhofar Governorate","Wlyt_ID":"Salalah","Road_ID":" ","Latitude":17.01700001,"Longitude":54.066491829999997,"GlobalID":"{7A5ACA48-74BB-4066-ACAE-EA7E9FEEC762}"}},{"type":"Feature","id":212,"geometry":{"type":"Point","coordinates":[187991.98020000011,1884317.1075999998]},"properties":{"OBJECTID":212,"Asset_ID":"HRD212","Name":"نسخ المفاتيح","District_ID":"al Wadi","Gov_ID":"Dhofar Governorate","Wlyt_ID":"Salalah","Road_ID":" ","Latitude":17.021919359999998,"Longitude":54.069510299999997,"GlobalID":"{F98C94AD-DDB3-4733-8103-DA61861C3F46}"}},{"type":"Feature","id":213,"geometry":{"type":"Point","coordinates":[190040.96839999966,1883440.1798]},"properties":{"OBJECTID":213,"Asset_ID":"HRD213","Name":"البيع بالتجزئة في المتاجر المتخصصة لمعدات ضخ و تنقية المياه","District_ID":"Salalah al Jadida","Gov_ID":"Dhofar Governorate","Wlyt_ID":"Salalah","Road_ID":" ","Latitude":17.014278919999999,"Longitude":54.088859460000002,"GlobalID":"{802C585A-46DB-4B2A-8D3D-77F4DDC02C62}"}},{"type":"Feature","id":214,"geometry":{"type":"Point","coordinates":[190037.35900000017,1883406.1638999991]},"properties":{"OBJECTID":214,"Asset_ID":"HRD214","Name":"الدرة الماسية الشاملة(بيع أجهزة و معدات تنقية المياه و مستلزماتها)","District_ID":"Salalah al Gharbiyya","Gov_ID":"Dhofar Governorate","Wlyt_ID":"Salalah","Road_ID":" ","Latitude":17.013971349999998,"Longitude":54.088830340000001,"GlobalID":"{76A87BD2-4787-4520-99DF-89A8B50480B9}"}},{"type":"Feature","id":215,"geometry":{"type":"Point","coordinates":[190162.04760000017,1883435.2578999996]},"properties":{"OBJECTID":215,"Asset_ID":"HRD215","Name":"بيع معدات و ضخ و تنقية المياه","District_ID":"Salalah al Wousta","Gov_ID":"Dhofar Governorate","Wlyt_ID":"Salalah","Road_ID":" ","Latitude":17.014250749999999,"Longitude":54.089996259999999,"GlobalID":"{D9C517CC-CD0A-433C-8D4B-09C4D31D2C33}"}},{"type":"Feature","id":216,"geometry":{"type":"Point","coordinates":[189838.24010000005,1883345.8704000004]},"properties":{"OBJECTID":216,"Asset_ID":"HRD216","Name":"بيع الأجهزة و معدات و مسلتزمات تنقية المياه","District_ID":"Salalah al Gharbiyya","Gov_ID":"Dhofar Governorate","Wlyt_ID":"Salalah","Road_ID":" ","Latitude":17.013400270000002,"Longitude":54.086970399999998,"GlobalID":"{FFF2A929-A9A9-470C-99EF-85EA670F1ACD}"}},{"type":"Feature","id":217,"geometry":{"type":"Point","coordinates":[189828.88850000035,1883342.3431000002]},"properties":{"OBJECTID":217,"Asset_ID":"HRD217","Name":"بيع أجهزة و معدات و مسلتزمات تنقية المياه","District_ID":"Salalah al Gharbiyya","Gov_ID":"Dhofar Governorate","Wlyt_ID":"Salalah","Road_ID":" ","Latitude":17.013367169999999,"Longitude":54.086883139999998,"GlobalID":"{6BAB03C9-0D74-461E-AE36-458EF1D54B8E}"}},{"type":"Feature","id":218,"geometry":{"type":"Point","coordinates":[189845.86909999978,1883377.9449000005]},"properties":{"OBJECTID":218,"Asset_ID":"HRD218","Name":"بيع معدات ضخ و تنقية المياه","District_ID":"Salalah al Jadida","Gov_ID":"Dhofar Governorate","Wlyt_ID":"Salalah","Road_ID":" ","Latitude":17.013690860000001,"Longitude":54.087037500000001,"GlobalID":"{97467176-BACF-4271-BC47-393895FF1351}"}},{"type":"Feature","id":219,"geometry":{"type":"Point","coordinates":[189786.47800000012,1883360.0620000008]},"properties":{"OBJECTID":219,"Asset_ID":"HRD219","Name":"نسخ المفاتيح","District_ID":"Salalah al Jadida","Gov_ID":"Dhofar Governorate","Wlyt_ID":"Salalah","Road_ID":" ","Latitude":17.013521440000002,"Longitude":54.086482719999999,"GlobalID":"{CA94AB44-1CBF-425B-A5A5-2C916FC476FE}"}},{"type":"Feature","id":220,"geometry":{"type":"Point","coordinates":[189779.99739999976,1883358.5854000002]},"properties":{"OBJECTID":220,"Asset_ID":"HRD220","Name":"بيع و صيانة اجهزة تنقية المياه","District_ID":"Salalah al Jadida","Gov_ID":"Dhofar Governorate","Wlyt_ID":"Salalah","Road_ID":" ","Latitude":17.013507229999998,"Longitude":54.086422120000002,"GlobalID":"{C211785C-0913-4C3E-AB62-949B2DADC1A2}"}},{"type":"Feature","id":221,"geometry":{"type":"Point","coordinates":[189598.2145999996,1884194.1218999997]},"properties":{"OBJECTID":221,"Asset_ID":"HRD221","Name":"اعمال تنفيذ التصميم الداخلي","District_ID":"Salalah al Jadida","Gov_ID":"Dhofar Governorate","Wlyt_ID":"Salalah","Road_ID":" ","Latitude":17.021025819999998,"Longitude":54.084599580000003,"GlobalID":"{B122682B-B210-403C-BFB0-7E258F1A9F4A}"}},{"type":"Feature","id":222,"geometry":{"type":"Point","coordinates":[189165.45500000007,1883535.4872999992]},"properties":{"OBJECTID":222,"Asset_ID":"HRD222","Name":"قص و تفصيل الستائر و تنجيد المقاعد","District_ID":"Salalah al Jadida","Gov_ID":"Dhofar Governorate","Wlyt_ID":"Salalah","Road_ID":" ","Latitude":17.015021560000001,"Longitude":54.080631029999999,"GlobalID":"{9D502373-FB97-4F30-80BC-5C3FF5350D56}"}},{"type":"Feature","id":223,"geometry":{"type":"Point","coordinates":[189608.06570000015,1883789.6927000005]},"properties":{"OBJECTID":223,"Asset_ID":"HRD223","Name":"تأجير الخيام\r\n","District_ID":"Salalah al Jadida","Gov_ID":"2","Wlyt_ID":"Salalah","Road_ID":" ","Latitude":17.017376049999999,"Longitude":54.084748580000003,"GlobalID":"{6E74BB70-7748-4791-9B2A-EA863E7DC8FA}"}},{"type":"Feature","id":224,"geometry":{"type":"Point","coordinates":[189348.7818,1883178.8103]},"properties":{"OBJECTID":224,"Asset_ID":"HRD224","Name":"تأجير الخيام","District_ID":"Salalah al Gharbiyya","Gov_ID":"2","Wlyt_ID":"Salalah","Road_ID":" ","Latitude":17.011826249999999,"Longitude":54.082401130000001,"GlobalID":"{13BBA416-48A9-4F24-9069-073687731AD8}"}},{"type":"Feature","id":225,"geometry":{"type":"Point","coordinates":[189205.83359999955,1883142.8539000005]},"properties":{"OBJECTID":225,"Asset_ID":"HRD225","Name":"صحراء العرب للخيام والمظلات ومستلزماتها\r\n","District_ID":"Salalah al Gharbiyya","Gov_ID":"2","Wlyt_ID":"Salalah","Road_ID":" ","Latitude":17.011482399999998,"Longitude":54.08106488,"GlobalID":"{9BFEF6B9-5BC2-4BB4-BF74-06CF9DBDF088}"}},{"type":"Feature","id":226,"geometry":{"type":"Point","coordinates":[189124.95930000022,1883116.5713999998]},"properties":{"OBJECTID":226,"Asset_ID":"HRD226","Name":"قص و تفصيل الستائر","District_ID":"Salalah al Gharbiyya","Gov_ID":"2","Wlyt_ID":"Salalah","Road_ID":" ","Latitude":17.01123424,"Longitude":54.080309710000002,"GlobalID":"{1EECC123-FE1A-4D64-A5C6-E40FCC96BD23}"}},{"type":"Feature","id":227,"geometry":{"type":"Point","coordinates":[189114.24289999995,1883113.9409999996]},"properties":{"OBJECTID":227,"Asset_ID":"HRD227","Name":"كارما قص و تفصيل الأثاث المصري الدمياطي","District_ID":"Salalah al Gharbiyya","Gov_ID":"2","Wlyt_ID":"Salalah","Road_ID":" ","Latitude":17.011209050000001,"Longitude":54.080209529999998,"GlobalID":"{EC47ACBA-1964-4E41-9C78-76A371AE3220}"}},{"type":"Feature","id":228,"geometry":{"type":"Point","coordinates":[189100.65240000002,1883111.8037999999]},"properties":{"OBJECTID":228,"Asset_ID":"HRD228","Name":"الماسة للمفروشات (بيع الاثاث المنزلي و قص و تفصيل الستائر)","District_ID":"Salalah al Gharbiyya","Gov_ID":"2","Wlyt_ID":"Salalah","Road_ID":" ","Latitude":17.011187920000001,"Longitude":54.080082310000002,"GlobalID":"{48D364C1-E5A9-42B5-A9A3-BDD6BBE02466}"}},{"type":"Feature","id":229,"geometry":{"type":"Point","coordinates":[189086.67229999974,1883103.5167999994]},"properties":{"OBJECTID":229,"Asset_ID":"HRD229","Name":"قص و تفصيل الستائر","District_ID":"Salalah al Gharbiyya","Gov_ID":"2","Wlyt_ID":"Salalah","Road_ID":" ","Latitude":17.011111230000001,"Longitude":54.079952300000002,"GlobalID":"{F97D081E-E64F-420F-96FD-1A0BE3CAA057}"}},{"type":"Feature","id":230,"geometry":{"type":"Point","coordinates":[189077.70940000005,1883101.8606000002]},"properties":{"OBJECTID":230,"Asset_ID":"HRD230","Name":"قص و تفصيل الستائر و تنجيد المقاعد","District_ID":"Salalah al Gharbiyya","Gov_ID":"2","Wlyt_ID":"Salalah","Road_ID":" ","Latitude":17.01109507,"Longitude":54.079868429999998,"GlobalID":"{310C95D5-94EE-445C-9924-EC0FEF2240C1}"}},{"type":"Feature","id":231,"geometry":{"type":"Point","coordinates":[189070.40280000027,1883101.1787]},"properties":{"OBJECTID":231,"Asset_ID":"HRD231","Name":"قص و تفصيل الستائر","District_ID":"Salalah al Gharbiyya","Gov_ID":"2","Wlyt_ID":"Salalah","Road_ID":" ","Latitude":17.011087929999999,"Longitude":54.079799970000003,"GlobalID":"{5D4B2E5E-C565-4639-97B6-DE80DA5DA43D}"}},{"type":"Feature","id":232,"geometry":{"type":"Point","coordinates":[189066.21360000037,1883099.9122000001]},"properties":{"OBJECTID":232,"Asset_ID":"HRD232","Name":"بيع الدهانات و الطلاءات","District_ID":"Salalah al Gharbiyya","Gov_ID":"2","Wlyt_ID":"Salalah","Road_ID":" ","Latitude":17.011075930000001,"Longitude":54.079760839999999,"GlobalID":"{348FBC19-1272-468F-9F55-3C79BDEE8CE8}"}},{"type":"Feature","id":233,"geometry":{"type":"Point","coordinates":[189057.15330000035,1883097.4766000006]},"properties":{"OBJECTID":233,"Asset_ID":"HRD233","Name":"قص و تفصيل الستائر و تنجيد الاثاث","District_ID":"Salalah al Gharbiyya","Gov_ID":"2","Wlyt_ID":"Salalah","Road_ID":" ","Latitude":17.011052719999999,"Longitude":54.079676169999999,"GlobalID":"{0FBA6266-BBD2-44D9-AF77-6E0FCE239365}"}},{"type":"Feature","id":234,"geometry":{"type":"Point","coordinates":[187405.0449000001,1882560.8816999998]},"properties":{"OBJECTID":234,"Asset_ID":"HRD234","Name":"قص و تفصيل الستائر","District_ID":"al Wadi","Gov_ID":"2","Wlyt_ID":"Salalah","Road_ID":" ","Latitude":17.00598536,"Longitude":54.064250139999999,"GlobalID":"{022F4A85-AF22-4E47-B712-F10D1A5E91B3}"}},{"type":"Feature","id":235,"geometry":{"type":"Point","coordinates":[188780.94689999986,1883699.0786000006]},"properties":{"OBJECTID":235,"Asset_ID":"HRD235","Name":"تنجيد الاثاث","District_ID":"Salalah al Jadida","Gov_ID":"2","Wlyt_ID":"Salalah","Road_ID":" ","Latitude":17.01644658,"Longitude":54.077000200000001,"GlobalID":"{9E4C91A3-89B3-4E64-8E12-5BDBF15E437F}"}},{"type":"Feature","id":236,"geometry":{"type":"Point","coordinates":[185087.15270000044,1882414.9642999992]},"properties":{"OBJECTID":236,"Asset_ID":"HRD236","Name":"مناص للافراح و المناسبات تأجير الخيم","District_ID":"Auqad al Janubiyya","Gov_ID":"2","Wlyt_ID":"Salalah","Road_ID":null,"Latitude":17.004353089999999,"Longitude":54.042523260000003,"GlobalID":"{45EBE31C-B907-42DA-A26D-44399D9FE207}"}},{"type":"Feature","id":237,"geometry":{"type":"Point","coordinates":[187384.01719999965,1882552.0837999992]},"properties":{"OBJECTID":237,"Asset_ID":"HRD237","Name":"تجارة مواد البناء ","District_ID":"al Wadi","Gov_ID":"2","Wlyt_ID":"Salalah","Road_ID":null,"Latitude":17.00590309,"Longitude":54.064054089999999,"GlobalID":"{A5BA2DBF-D00E-4B0E-B1B8-B96E7B6A97CD}"}},{"type":"Feature","id":238,"geometry":{"type":"Point","coordinates":[187361.09219999984,1882520.2949000001]},"properties":{"OBJECTID":238,"Asset_ID":"HRD238","Name":"بيع المواد الصحية و تمديداتها و الادوات الكهربائية و تمديداتها","District_ID":"al Wadi","Gov_ID":"2","Wlyt_ID":"Salalah","Road_ID":null,"Latitude":17.005613010000001,"Longitude":54.063843470000002,"GlobalID":"{4163022F-D38C-40DB-A48E-4AA9CA258C33}"}},{"type":"Feature","id":239,"geometry":{"type":"Point","coordinates":[184627.90780000016,1882156.5578000005]},"properties":{"OBJECTID":239,"Asset_ID":"HRD239","Name":"اصلاح الاحذية و المنتجات الجلدية ","District_ID":"Auqad al Janubiyya","Gov_ID":"2","Wlyt_ID":"Salalah","Road_ID":null,"Latitude":17.001957659999999,"Longitude":54.038251170000002,"GlobalID":"{3E897552-58FD-42A5-A3E7-46DA5A89F2C9}"}},{"type":"Feature","id":240,"geometry":{"type":"Point","coordinates":[183533.78940000013,1881736.1131999996]},"properties":{"OBJECTID":240,"Asset_ID":"HRD240","Name":"بيع مواد البناء ","District_ID":"Auqad al Shamaliyya","Gov_ID":"2","Wlyt_ID":"Salalah","Road_ID":null,"Latitude":16.998012490000001,"Longitude":54.028045910000003,"GlobalID":"{7764A521-C2CD-4B3C-B189-0EAFE5840226}"}},{"type":"Feature","id":241,"geometry":{"type":"Point","coordinates":[183488.43130000029,1881785.6358000003]},"properties":{"OBJECTID":241,"Asset_ID":"HRD241","Name":"تجارة مواد البناء و الأدوات الكهربائية و الصحية و تمديداتها","District_ID":"Auqad al Shamaliyya","Gov_ID":"2","Wlyt_ID":"Salalah","Road_ID":null,"Latitude":16.99845333,"Longitude":54.02761331,"GlobalID":"{5D9D935F-9C46-47FB-9B15-AD3EB0F1DB9C}"}},{"type":"Feature","id":242,"geometry":{"type":"Point","coordinates":[187135.90830000024,1882359.2424999997]},"properties":{"OBJECTID":242,"Asset_ID":"HRD242","Name":"خيام دار السلام","District_ID":"al Wadi","Gov_ID":"2","Wlyt_ID":"Salalah","Road_ID":null,"Latitude":17.004128590000001,"Longitude":54.061753349999996,"GlobalID":"{C018A899-15A0-4595-90F0-082C6F9542F1}"}},{"type":"Feature","id":243,"geometry":{"type":"Point","coordinates":[185504.51640000008,1882197.7480999995]},"properties":{"OBJECTID":243,"Asset_ID":"HRD243","Name":"اصلاح الدراجات الهوائية","District_ID":"Auqad al Janubiyya","Gov_ID":"2","Wlyt_ID":"Salalah","Road_ID":null,"Latitude":17.00244906,"Longitude":54.046469850000001,"GlobalID":"{C6659B2B-BE6E-4B09-B947-D8904549B0DC}"}},{"type":"Feature","id":244,"geometry":{"type":"Point","coordinates":[184820.34080000035,1882334.6643000003]},"properties":{"OBJECTID":244,"Asset_ID":"HRD244","Name":"بيع مواد البناء","District_ID":"Auqad al Janubiyya","Gov_ID":"2","Wlyt_ID":"Salalah","Road_ID":null,"Latitude":17.003591780000001,"Longitude":54.040031339999999,"GlobalID":"{41836DE7-0833-49AB-B0AC-C962A025655C}"}},{"type":"Feature","id":245,"geometry":{"type":"Point","coordinates":[185005.65950000007,1882390.0001999997]},"properties":{"OBJECTID":245,"Asset_ID":"HRD245","Name":"مواد كهربائية و صحية و مواد بناء","District_ID":"Auqad al Janubiyya","Gov_ID":"2","Wlyt_ID":"Salalah","Road_ID":null,"Latitude":17.004116610000001,"Longitude":54.041762200000001,"GlobalID":"{54B858BB-9F0A-4B2B-869E-AF5668DABBB9}"}},{"type":"Feature","id":246,"geometry":{"type":"Point","coordinates":[185054.98489999957,1882407.7822999991]},"properties":{"OBJECTID":246,"Asset_ID":"HRD246","Name":"بيع مواد البناء","District_ID":"Auqad al Janubiyya","Gov_ID":"2","Wlyt_ID":"Salalah","Road_ID":null,"Latitude":17.004283869999998,"Longitude":54.042222469999999,"GlobalID":"{A74B9FAD-C0AF-4987-A813-01783064DE99}"}},{"type":"Feature","id":247,"geometry":{"type":"Point","coordinates":[185120.99120000005,1882123.0538999997]},"properties":{"OBJECTID":247,"Asset_ID":"HRD247","Name":"اصلاح الدراجات الهوائية","District_ID":"Auqad al Janubiyya","Gov_ID":"2","Wlyt_ID":"Salalah","Road_ID":null,"Latitude":17.0017225,"Longitude":54.042882110000001,"GlobalID":"{D3FEE14D-5F68-47E6-840A-DC4EAA287CEA}"}},{"type":"Feature","id":248,"geometry":{"type":"Point","coordinates":[184739.80680000037,1882124.8874999993]},"properties":{"OBJECTID":248,"Asset_ID":"HRD248","Name":"اصلاح الدراجات الهوائبة","District_ID":"Auqad al Janubiyya","Gov_ID":"2","Wlyt_ID":"Salalah","Road_ID":null,"Latitude":17.00168704,"Longitude":54.039305519999999,"GlobalID":"{45DD4911-82C4-43C9-8CBC-A9C4361BCE29}"}},{"type":"Feature","id":249,"geometry":{"type":"Point","coordinates":[184579.36600000039,1882077.4801000003]},"properties":{"OBJECTID":249,"Asset_ID":"HRD249","Name":"بيع مواد بناء","District_ID":"Auqad al Janubiyya","Gov_ID":"2","Wlyt_ID":"Salalah","Road_ID":null,"Latitude":17.00123717,"Longitude":54.037806969999998,"GlobalID":"{163C7D08-067D-4CD2-8FB4-64FFB675A1AB}"}}]}