{"type":"FeatureCollection","crs":{"type":"name","properties":{"name":"EPSG:32640"}},"features":[{"type":"Feature","id":1,"geometry":{"type":"Point","coordinates":[203982.37939999998,1894722.8859999999]},"properties":{"OBJECTID":1,"Asset_ID":"Vlg1","Name":"Arjili","District_ID":null,"Gov_ID":"2","Wlyt_ID":"Salalah","Road_ID":null,"Latitude":17.117978910000001,"Longitude":54.218172670000001,"GlobalID":"{5AB3657A-3AAE-4DE7-B16B-AA3B16AF63C9}"}},{"type":"Feature","id":2,"geometry":{"type":"Point","coordinates":[203127.76279999968,1894945.7843999993]},"properties":{"OBJECTID":2,"Asset_ID":"Vlg2","Name":"Ashut","District_ID":null,"Gov_ID":"2","Wlyt_ID":"Salalah","Road_ID":null,"Latitude":17.119880869999999,"Longitude":54.210118309999999,"GlobalID":"{CE93095B-45DB-4A49-9CB9-8708AFCEE15B}"}},{"type":"Feature","id":3,"geometry":{"type":"Point","coordinates":[202521.05860000011,1894568.1758999992]},"properties":{"OBJECTID":3,"Asset_ID":"Vlg3","Name":"Harbur","District_ID":null,"Gov_ID":"2","Wlyt_ID":"Salalah","Road_ID":null,"Latitude":17.116392919999999,"Longitude":54.20447265,"GlobalID":"{B6510D27-A25A-4838-8455-A1B6A6C067FE}"}},{"type":"Feature","id":4,"geometry":{"type":"Point","coordinates":[201135.58509999979,1895166.1848000009]},"properties":{"OBJECTID":4,"Asset_ID":"Vlg4","Name":"Safagh","District_ID":null,"Gov_ID":"2","Wlyt_ID":"Salalah","Road_ID":null,"Latitude":17.121611869999999,"Longitude":54.191383090000002,"GlobalID":"{5D848079-CF70-4871-AE1E-0FA193E8DD8C}"}},{"type":"Feature","id":5,"geometry":{"type":"Point","coordinates":[199500.71480000019,1893718.3189000003]},"properties":{"OBJECTID":5,"Asset_ID":"Vlg5","Name":"Afaydad","District_ID":null,"Gov_ID":"2","Wlyt_ID":"Salalah","Road_ID":null,"Latitude":17.108326179999999,"Longitude":54.176230070000003,"GlobalID":"{486D5C67-3A6E-4859-B1F5-5E783BEF7089}"}},{"type":"Feature","id":6,"geometry":{"type":"Point","coordinates":[198416.50829999987,1893413.5063000005]},"properties":{"OBJECTID":6,"Asset_ID":"Vlg6","Name":"Hiyam","District_ID":null,"Gov_ID":"2","Wlyt_ID":"Salalah","Road_ID":null,"Latitude":17.105431939999999,"Longitude":54.166092589999998,"GlobalID":"{B1B57424-2844-4090-B3A2-AF815370514E}"}},{"type":"Feature","id":7,"geometry":{"type":"Point","coordinates":[200037.87789999973,1896035.9861999992]},"properties":{"OBJECTID":7,"Asset_ID":"Vlg7","Name":"Tuwat","District_ID":null,"Gov_ID":"2","Wlyt_ID":"Salalah","Road_ID":null,"Latitude":17.12932142,"Longitude":54.180957900000003,"GlobalID":"{65579076-A1BD-4275-90FB-7412B1AE0453}"}},{"type":"Feature","id":8,"geometry":{"type":"Point","coordinates":[198573.53859999962,1896042.2616000008]},"properties":{"OBJECTID":8,"Asset_ID":"Vlg8","Name":"Aarnut","District_ID":null,"Gov_ID":"2","Wlyt_ID":"Salalah","Road_ID":null,"Latitude":17.12918586,"Longitude":54.167207410000003,"GlobalID":"{214B30B0-5035-4B2F-AAB5-5E7808E40616}"}},{"type":"Feature","id":9,"geometry":{"type":"Point","coordinates":[197349.82890000008,1895791.0089999996]},"properties":{"OBJECTID":9,"Asset_ID":"Vlg9","Name":"Akifaf","District_ID":null,"Gov_ID":"2","Wlyt_ID":"Salalah","Road_ID":null,"Latitude":17.126756159999999,"Longitude":54.155751860000002,"GlobalID":"{8AC830CD-14AE-4297-BE00-7827EC1AC63F}"}},{"type":"Feature","id":10,"geometry":{"type":"Point","coordinates":[202159.79540000018,1891746.8427000009]},"properties":{"OBJECTID":10,"Asset_ID":"Vlg10","Name":"Anjarti","District_ID":"Sahalnout al Shamaliyya","Gov_ID":"2","Wlyt_ID":"Salalah","Road_ID":null,"Latitude":17.090873290000001,"Longitude":54.201461500000001,"GlobalID":"{6A55E5B3-6B28-424C-BCEC-750CA6BF187E}"}},{"type":"Feature","id":11,"geometry":{"type":"Point","coordinates":[188220,1889801]},"properties":{"OBJECTID":11,"Asset_ID":"Vlg11","Name":"Salut Awdat","District_ID":null,"Gov_ID":"2","Wlyt_ID":"Salalah","Road_ID":null,"Latitude":17.071456770000001,"Longitude":54.070878039999997,"GlobalID":"{48608DB1-C218-4545-9C2F-9C4C850A0A80}"}},{"type":"Feature","id":12,"geometry":{"type":"Point","coordinates":[191111,1882460]},"properties":{"OBJECTID":12,"Asset_ID":"Vlg12","Name":"Salalah Ash Sharqiyyah","District_ID":"Salalah al Sharqiyya","Gov_ID":"2","Wlyt_ID":"Salalah","Road_ID":null,"Latitude":17.005573460000001,"Longitude":54.099036169999998,"GlobalID":"{552A029B-5053-45C7-ACAC-08B6422E87C9}"}},{"type":"Feature","id":13,"geometry":{"type":"Point","coordinates":[197311,1885210.9999000002]},"properties":{"OBJECTID":13,"Asset_ID":"Vlg13","Name":"Ad Dahariz Ash Shamaliyyah","District_ID":"Dahariz al Shamaliyya","Gov_ID":"2","Wlyt_ID":"Salalah","Road_ID":null,"Latitude":17.03123171,"Longitude":54.156836230000003,"GlobalID":"{16F950EF-B118-4535-8709-FC06F62D9A7E}"}},{"type":"Feature","id":14,"geometry":{"type":"Point","coordinates":[200500,1891511]},"properties":{"OBJECTID":14,"Asset_ID":"Vlg14","Name":"Sahalnawt Ash Shamaliyyah","District_ID":"Sahalnout al Shamaliyya","Gov_ID":"2","Wlyt_ID":"Salalah","Road_ID":null,"Latitude":17.088528100000001,"Longitude":54.185911529999998,"GlobalID":"{53A252ED-3CCC-473D-BCF2-4ADC950C6CF4}"}},{"type":"Feature","id":15,"geometry":{"type":"Point","coordinates":[181511.00009999983,1884200]},"properties":{"OBJECTID":15,"Asset_ID":"Vlg15","Name":"Awqad Ash Shamaliyyah","District_ID":"Auqad al Shamaliyya Extension","Gov_ID":"2","Wlyt_ID":"Salalah","Road_ID":null,"Latitude":17.01997635,"Longitude":54.008715189999997,"GlobalID":"{6C973B20-6500-4B44-AD19-1CE916167750}"}},{"type":"Feature","id":16,"geometry":{"type":"Point","coordinates":[181311,1886940]},"properties":{"OBJECTID":16,"Asset_ID":"Vlg16","Name":"Shihayt","District_ID":null,"Gov_ID":"2","Wlyt_ID":"Salalah","Road_ID":null,"Latitude":17.044683030000002,"Longitude":54.00644483,"GlobalID":"{129D81C1-B19B-4629-968B-A79E4411EB68}"}},{"type":"Feature","id":17,"geometry":{"type":"Point","coordinates":[189200,1883111]},"properties":{"OBJECTID":17,"Asset_ID":"Vlg17","Name":"Salalah Al Jadidah","District_ID":"Salalah al Gharbiyya","Gov_ID":"2","Wlyt_ID":"Salalah","Road_ID":null,"Latitude":17.01119405,"Longitude":54.081014600000003,"GlobalID":"{F8F600F7-0540-4C43-97CE-31793A1A56EB}"}},{"type":"Feature","id":18,"geometry":{"type":"Point","coordinates":[184920,1888511.0000999998]},"properties":{"OBJECTID":18,"Asset_ID":"Vlg18","Name":"Aqbat Shaanut","District_ID":null,"Gov_ID":"2","Wlyt_ID":"Salalah","Road_ID":null,"Latitude":17.059361620000001,"Longitude":54.040088760000003,"GlobalID":"{5849FDF0-22DF-4E96-BE57-0B4DAD2CED96}"}},{"type":"Feature","id":19,"geometry":{"type":"Point","coordinates":[189500,1882620]},"properties":{"OBJECTID":19,"Asset_ID":"Vlg19","Name":"Salalah Al Gharbiyyah","District_ID":"Salalah al Gharbiyya","Gov_ID":"2","Wlyt_ID":"Salalah","Road_ID":null,"Latitude":17.006801800000002,"Longitude":54.083898150000003,"GlobalID":"{5CB0DCBD-4657-48B9-9048-91A0947BBA3A}"}},{"type":"Feature","id":20,"geometry":{"type":"Point","coordinates":[190959.99990000017,1889459.9999000002]},"properties":{"OBJECTID":20,"Asset_ID":"Vlg20","Name":"Ina","District_ID":null,"Gov_ID":"2","Wlyt_ID":"Salalah","Road_ID":null,"Latitude":17.068748209999999,"Longitude":54.096643380000003,"GlobalID":"{875A0B3C-F412-4C2E-BD5F-909C917722F1}"}},{"type":"Feature","id":21,"geometry":{"type":"Point","coordinates":[195110.99990000017,1883100]},"properties":{"OBJECTID":21,"Asset_ID":"Vlg21","Name":"Al Balid","District_ID":"al Baleed","Gov_ID":"2","Wlyt_ID":"Salalah","Road_ID":null,"Latitude":17.011883260000001,"Longitude":54.136480370000001,"GlobalID":"{F0CF627C-9718-4543-AECE-FCF862B2546E}"}},{"type":"Feature","id":22,"geometry":{"type":"Point","coordinates":[192120.99990000017,1882520]},"properties":{"OBJECTID":22,"Asset_ID":"Vlg22","Name":"Al Haffah","District_ID":"al Hafa","Gov_ID":"2","Wlyt_ID":"Salalah","Road_ID":null,"Latitude":17.006250059999999,"Longitude":54.108504570000001,"GlobalID":"{2A439065-3A53-4819-9F6D-978781D0089F}"}},{"type":"Feature","id":23,"geometry":{"type":"Point","coordinates":[193211,1882111]},"properties":{"OBJECTID":23,"Asset_ID":"Vlg23","Name":"Ad Duqm","District_ID":"al Hafa","Gov_ID":"2","Wlyt_ID":"Salalah","Road_ID":null,"Latitude":17.0027027,"Longitude":54.118788539999997,"GlobalID":"{3AB76208-9107-4696-BC98-312A3090BEE4}"}},{"type":"Feature","id":24,"geometry":{"type":"Point","coordinates":[194300,1884111]},"properties":{"OBJECTID":24,"Asset_ID":"Vlg24","Name":"Ar Rubat","District_ID":"al Huseela","Gov_ID":"2","Wlyt_ID":"Salalah","Road_ID":null,"Latitude":17.020903400000002,"Longitude":54.128731160000001,"GlobalID":"{E238DA60-3DF1-4C48-B7BC-BD8055030CE4}"}},{"type":"Feature","id":25,"geometry":{"type":"Point","coordinates":[191520,1883610.9999000002]},"properties":{"OBJECTID":25,"Asset_ID":"Vlg25","Name":"Az Zawiyah","District_ID":"al Zaweya","Gov_ID":"2","Wlyt_ID":"Salalah","Road_ID":null,"Latitude":17.016019289999999,"Longitude":54.102713860000001,"GlobalID":"{0B07EED4-11AB-4AAE-B6C5-5AC4372CD4C1}"}},{"type":"Feature","id":26,"geometry":{"type":"Point","coordinates":[191520,1882111]},"properties":{"OBJECTID":26,"Asset_ID":"Vlg26","Name":"As Suq","District_ID":"al Husn","Gov_ID":"2","Wlyt_ID":"Salalah","Road_ID":null,"Latitude":17.002477410000001,"Longitude":54.102922229999997,"GlobalID":"{F2E87C02-AD47-4460-B1FB-2628A729C814}"}},{"type":"Feature","id":27,"geometry":{"type":"Point","coordinates":[189111,1881806]},"properties":{"OBJECTID":27,"Asset_ID":"Vlg27","Name":"Hay Ash Shati","District_ID":"Salalah al Gharbiyya","Gov_ID":"2","Wlyt_ID":"Salalah","Road_ID":null,"Latitude":16.999400850000001,"Longitude":54.08036216,"GlobalID":"{3F732FC0-3C51-4E5B-A1D2-141CC242AC11}"}},{"type":"Feature","id":28,"geometry":{"type":"Point","coordinates":[187221.99990000017,1882620]},"properties":{"OBJECTID":28,"Asset_ID":"Vlg28","Name":"Al Qantrah","District_ID":"al Wadi","Gov_ID":"2","Wlyt_ID":"Salalah","Road_ID":null,"Latitude":17.006494270000001,"Longitude":54.06252439,"GlobalID":"{2E5325B6-FB22-406A-9DB3-E8423543DD54}"}},{"type":"Feature","id":29,"geometry":{"type":"Point","coordinates":[192611.00009999983,1884260]},"properties":{"OBJECTID":29,"Asset_ID":"Vlg29","Name":"Al Qawf","District_ID":"al Huseela","Gov_ID":"2","Wlyt_ID":"Salalah","Road_ID":null,"Latitude":17.022024080000001,"Longitude":54.112861299999999,"GlobalID":"{69423696-C1B3-4891-8B9B-1CF83D32E84F}"}},{"type":"Feature","id":30,"geometry":{"type":"Point","coordinates":[188200,1883200]},"properties":{"OBJECTID":30,"Asset_ID":"Vlg30","Name":"Al Wadi","District_ID":"al Wadi","Gov_ID":"2","Wlyt_ID":"Salalah","Road_ID":null,"Latitude":17.011862619999999,"Longitude":54.071619169999998,"GlobalID":"{989E5A1C-9665-4FF1-B0D4-DD9D64F4BBE2}"}},{"type":"Feature","id":31,"geometry":{"type":"Point","coordinates":[182860,1887460]},"properties":{"OBJECTID":31,"Asset_ID":"Vlg31","Name":"Kizawt","District_ID":null,"Gov_ID":"2","Wlyt_ID":"Salalah","Road_ID":null,"Latitude":17.04959101,"Longitude":54.020906320000002,"GlobalID":"{CD2ABEB2-AA39-4377-9431-DC02B3622049}"}},{"type":"Feature","id":32,"geometry":{"type":"Point","coordinates":[185711,1889520.0000999998]},"properties":{"OBJECTID":32,"Asset_ID":"Vlg32","Name":"Kizit Jaal","District_ID":null,"Gov_ID":"2","Wlyt_ID":"Salalah","Road_ID":null,"Latitude":17.068578469999999,"Longitude":54.047369019999998,"GlobalID":"{89839130-B5BE-4B43-945B-4FC7C2BFB333}"}},{"type":"Feature","id":33,"geometry":{"type":"Point","coordinates":[197121,1890111]},"properties":{"OBJECTID":33,"Asset_ID":"Vlg33","Name":"As Saadah Ash Shamaliyyah","District_ID":"al Sada al Shamaliyya","Gov_ID":"2","Wlyt_ID":"Salalah","Road_ID":null,"Latitude":17.075445389999999,"Longitude":54.154382839999997,"GlobalID":"{D01E69B3-FDD2-4BED-A2D7-00E698FE39DB}"}},{"type":"Feature","id":34,"geometry":{"type":"Point","coordinates":[190511,1883711]},"properties":{"OBJECTID":34,"Asset_ID":"Vlg34","Name":"City Center","District_ID":"Markaz al Madena","Gov_ID":"2","Wlyt_ID":"Salalah","Road_ID":null,"Latitude":17.016786939999999,"Longitude":54.093232110000002,"GlobalID":"{9F6F6A07-E2E4-4E6F-9022-E8534AD2BEAE}"}},{"type":"Feature","id":35,"geometry":{"type":"Point","coordinates":[186847,1891026]},"properties":{"OBJECTID":35,"Asset_ID":"Vlg35","Name":"Kizit","District_ID":null,"Gov_ID":"2","Wlyt_ID":"Salalah","Road_ID":null,"Latitude":17.082328860000001,"Longitude":54.057817749999998,"GlobalID":"{BF2B1F7E-DE57-4809-8E90-23A2A5CF5A5E}"}},{"type":"Feature","id":36,"geometry":{"type":"Point","coordinates":[190900,1891100]},"properties":{"OBJECTID":36,"Asset_ID":"Vlg36","Name":"Najur Jarziz","District_ID":null,"Gov_ID":"2","Wlyt_ID":"Salalah","Road_ID":null,"Latitude":17.083545749999999,"Longitude":54.095850910000003,"GlobalID":"{11B601A1-030E-4F00-AFB8-E6C218ACB35F}"}},{"type":"Feature","id":37,"geometry":{"type":"Point","coordinates":[190072.00009999983,1883643]},"properties":{"OBJECTID":37,"Asset_ID":"Vlg37","Name":"Salalah Al Wusta","District_ID":"Salalah al Jadida","Gov_ID":"2","Wlyt_ID":"Salalah","Road_ID":null,"Latitude":17.01611411,"Longitude":54.089122320000001,"GlobalID":"{99BC53A7-DC8E-46DB-B689-3AF4CD9CD09E}"}},{"type":"Feature","id":38,"geometry":{"type":"Point","coordinates":[198111,1883200]},"properties":{"OBJECTID":38,"Asset_ID":"Vlg38","Name":"Ad Dahariz Al Janubiyyah","District_ID":"Dahariz al Janubiyya","Gov_ID":"2","Wlyt_ID":"Salalah","Road_ID":null,"Latitude":17.013180519999999,"Longitude":54.164617569999997,"GlobalID":"{0106B2E1-1CA4-429C-B7C4-2F2FD41FBFDE}"}},{"type":"Feature","id":39,"geometry":{"type":"Point","coordinates":[201201,1888611.0000999998]},"properties":{"OBJECTID":39,"Asset_ID":"Vlg39","Name":"Sahalnawt Al Janubiyyah","District_ID":"Sahalnout al Janubiyya","Gov_ID":"2","Wlyt_ID":"Salalah","Road_ID":null,"Latitude":17.062436550000001,"Longitude":54.192884300000003,"GlobalID":"{0ADD6F1B-7711-4A70-9FB1-3E1088071462}"}},{"type":"Feature","id":40,"geometry":{"type":"Point","coordinates":[186211,1881211]},"properties":{"OBJECTID":40,"Asset_ID":"Vlg40","Name":"Awqad Al Janubiyyah","District_ID":"Auqad al Janubiyya","Gov_ID":"2","Wlyt_ID":"Salalah","Road_ID":null,"Latitude":16.993637280000002,"Longitude":54.053237600000003,"GlobalID":"{71F0F5F7-F8A8-4357-B149-F6C50380F698}"}},{"type":"Feature","id":41,"geometry":{"type":"Point","coordinates":[197233.4570000004,1888614.0803999994]},"properties":{"OBJECTID":41,"Asset_ID":"Vlg41","Name":"As Saadah Al Janubiyyah","District_ID":"al Sada al Janubiyya","Gov_ID":"2","Wlyt_ID":"Salalah","Road_ID":null,"Latitude":17.061945590000001,"Longitude":54.155643359999999,"GlobalID":"{6526E399-2E52-47A6-9079-44D1D357311B}"}},{"type":"Feature","id":42,"geometry":{"type":"Point","coordinates":[195695.53849999979,1894879.4733000007]},"properties":{"OBJECTID":42,"Asset_ID":"Vlg42","Name":"Aayriti","District_ID":null,"Gov_ID":"2","Wlyt_ID":"Salalah","Road_ID":null,"Latitude":17.118307590000001,"Longitude":54.140345089999997,"GlobalID":"{19A05F99-7FFC-4FE4-BA17-41F0AA59AAC6}"}},{"type":"Feature","id":43,"geometry":{"type":"Point","coordinates":[190197.79739999957,1884419.2962999996]},"properties":{"OBJECTID":43,"Asset_ID":"Vlg43","Name":"SALALAH","District_ID":"Salalah al Jadida","Gov_ID":"2","Wlyt_ID":"Salalah","Road_ID":null,"Latitude":17.023139270000001,"Longitude":54.090194339999996,"GlobalID":"{5B21FC37-C2BF-470B-85C1-EFE6972FF75A}"}},{"type":"Feature","id":44,"geometry":{"type":"Point","coordinates":[203500,1886200]},"properties":{"OBJECTID":44,"Asset_ID":"Vlg44","Name":"Razat","District_ID":"Razat","Gov_ID":"2","Wlyt_ID":"Salalah","Road_ID":null,"Latitude":17.040965679999999,"Longitude":54.214786840000002,"GlobalID":"{91274900-9FA0-4F70-883D-C154AD28AE53}"}},{"type":"Feature","id":45,"geometry":{"type":"Point","coordinates":[179013.34860000014,1884754.9093999993]},"properties":{"OBJECTID":45,"Asset_ID":"Vlg45","Name":"Daan Tashqan","District_ID":null,"Gov_ID":"2","Wlyt_ID":"Salalah","Road_ID":null,"Latitude":17.024639279999999,"Longitude":53.985200229999997,"GlobalID":"{6F0F915D-DEF6-4CE2-BB1F-5A14C2EAEB53}"}},{"type":"Feature","id":46,"geometry":{"type":"Point","coordinates":[179927.68310000002,1885305.9872999992]},"properties":{"OBJECTID":46,"Asset_ID":"Vlg46","Name":"Asinaut","District_ID":null,"Gov_ID":"2","Wlyt_ID":"Salalah","Road_ID":null,"Latitude":17.029740960000002,"Longitude":53.993699790000001,"GlobalID":"{AC50F1DC-B37B-413C-82CA-70F802DA3AA0}"}},{"type":"Feature","id":47,"geometry":{"type":"Point","coordinates":[187788.50569999963,1891705.8684999999]},"properties":{"OBJECTID":47,"Asset_ID":"Vlg47","Name":"Aqdariti","District_ID":null,"Gov_ID":"2","Wlyt_ID":"Salalah","Road_ID":null,"Latitude":17.088594539999999,"Longitude":54.066558999999998,"GlobalID":"{BD2E147E-C4AF-40B9-A38A-E2392FD08153}"}},{"type":"Feature","id":48,"geometry":{"type":"Point","coordinates":[186759.72009999957,1891380.6709000003]},"properties":{"OBJECTID":48,"Asset_ID":"Vlg48","Name":"Fajuri","District_ID":null,"Gov_ID":"2","Wlyt_ID":"Salalah","Road_ID":null,"Latitude":17.085518749999999,"Longitude":54.056948230000003,"GlobalID":"{5A8D6853-3F90-4214-9159-5B5F847B76B6}"}},{"type":"Feature","id":49,"geometry":{"type":"Point","coordinates":[188690.82540000044,1891868.5426000003]},"properties":{"OBJECTID":49,"Asset_ID":"Vlg49","Name":"Asitat","District_ID":null,"Gov_ID":"2","Wlyt_ID":"Salalah","Road_ID":null,"Latitude":17.090185590000001,"Longitude":54.075005930000003,"GlobalID":"{D203FE8C-039C-4641-8CE1-88FD5E24D6A9}"}},{"type":"Feature","id":50,"geometry":{"type":"Point","coordinates":[189509.69159999955,1892237.5021000002]},"properties":{"OBJECTID":50,"Asset_ID":"Vlg50","Name":"Shirukh","District_ID":null,"Gov_ID":"2","Wlyt_ID":"Salalah","Road_ID":null,"Latitude":17.093627300000001,"Longitude":54.082640670000004,"GlobalID":"{CFBED9A8-7A2E-463B-B159-D28617C3E31D}"}},{"type":"Feature","id":51,"geometry":{"type":"Point","coordinates":[187697.06659999955,1890655.9198000003]},"properties":{"OBJECTID":51,"Asset_ID":"Vlg51","Name":"Aktharnut","District_ID":null,"Gov_ID":"2","Wlyt_ID":"Salalah","Road_ID":null,"Latitude":17.07910364,"Longitude":54.06584909,"GlobalID":"{AF4DFC5F-202E-4BD9-A771-DCB4F41BD43B}"}},{"type":"Feature","id":52,"geometry":{"type":"Point","coordinates":[188773.5549999997,1890658.0507999994]},"properties":{"OBJECTID":52,"Asset_ID":"Vlg52","Name":"Akhnatut","District_ID":null,"Gov_ID":"2","Wlyt_ID":"Salalah","Road_ID":null,"Latitude":17.079268920000001,"Longitude":54.075953009999999,"GlobalID":"{6827FE3A-9257-4F00-900F-7F821F55058E}"}},{"type":"Feature","id":53,"geometry":{"type":"Point","coordinates":[187005.28249999974,1890452.8769000005]},"properties":{"OBJECTID":53,"Asset_ID":"Vlg53","Name":"Kizit Atah","District_ID":null,"Gov_ID":"2","Wlyt_ID":"Salalah","Road_ID":null,"Latitude":17.077176550000001,"Longitude":54.059384610000002,"GlobalID":"{C5E05923-A63D-420F-924B-6C6CEC8C32F6}"}},{"type":"Feature","id":54,"geometry":{"type":"Point","coordinates":[186294.71879999992,1890281.6892000008]},"properties":{"OBJECTID":54,"Asset_ID":"Vlg54","Name":"Ah Aazlan","District_ID":null,"Gov_ID":"2","Wlyt_ID":"Salalah","Road_ID":null,"Latitude":17.07553429,"Longitude":54.052739510000002,"GlobalID":"{570E3D55-3875-470C-B0FD-8D535C035A5A}"}},{"type":"Feature","id":55,"geometry":{"type":"Point","coordinates":[185671.11149999965,1890186.7192000002]},"properties":{"OBJECTID":55,"Asset_ID":"Vlg55","Name":"Asharbat","District_ID":null,"Gov_ID":"2","Wlyt_ID":"Salalah","Road_ID":null,"Latitude":17.074591770000001,"Longitude":54.046899879999998,"GlobalID":"{CD99E240-F6BE-41AD-81AD-D5DD97756E61}"}},{"type":"Feature","id":56,"geometry":{"type":"Point","coordinates":[187234.47929999977,1889728.9847999997]},"properties":{"OBJECTID":56,"Asset_ID":"Vlg56","Name":"Falqan","District_ID":null,"Gov_ID":"2","Wlyt_ID":"Salalah","Road_ID":null,"Latitude":17.070672800000001,"Longitude":54.061638270000003,"GlobalID":"{937C13A6-5EA5-4390-8668-91920F0813A9}"}},{"type":"Feature","id":57,"geometry":{"type":"Point","coordinates":[185257.13640000019,1889454.8054000009]},"properties":{"OBJECTID":57,"Asset_ID":"Vlg57","Name":"Ghawf","District_ID":null,"Gov_ID":"2","Wlyt_ID":"Salalah","Road_ID":null,"Latitude":17.067927860000001,"Longitude":54.043118540000002,"GlobalID":"{B56D1FFE-9161-43AE-954A-BB704F5BE38C}"}},{"type":"Feature","id":58,"geometry":{"type":"Point","coordinates":[184785.17210000008,1888763.0845999997]},"properties":{"OBJECTID":58,"Asset_ID":"Vlg58","Name":"Shah Aawn","District_ID":null,"Gov_ID":"2","Wlyt_ID":"Salalah","Road_ID":null,"Latitude":17.061618809999999,"Longitude":54.038787489999997,"GlobalID":"{5A8F1292-3F0F-4980-A1F3-EA40B9B61356}"}},{"type":"Feature","id":59,"geometry":{"type":"Point","coordinates":[183641.06010000035,1888513.5863000005]},"properties":{"OBJECTID":59,"Asset_ID":"Vlg59","Name":"Shahrun","District_ID":null,"Gov_ID":"2","Wlyt_ID":"Salalah","Road_ID":null,"Latitude":17.05920948,"Longitude":54.028085560000001,"GlobalID":"{83EE48FA-9468-4DC3-9449-3F8ECC00000A}"}},{"type":"Feature","id":60,"geometry":{"type":"Point","coordinates":[190122.55580000021,1891077.307]},"properties":{"OBJECTID":60,"Asset_ID":"Vlg60","Name":"Nawjar Aqid","District_ID":null,"Gov_ID":"2","Wlyt_ID":"Salalah","Road_ID":null,"Latitude":17.083236159999998,"Longitude":54.08855647,"GlobalID":"{DD8A90D0-16B7-4392-926B-BAC70C89D9A0}"}},{"type":"Feature","id":61,"geometry":{"type":"Point","coordinates":[191251.26250000019,1891261.4225999992]},"properties":{"OBJECTID":61,"Asset_ID":"Vlg61","Name":"Ghidar","District_ID":null,"Gov_ID":"2","Wlyt_ID":"Salalah","Road_ID":null,"Latitude":17.085050280000001,"Longitude":54.099125559999997,"GlobalID":"{CCC14115-66A2-4619-9AFF-6892D13FD99D}"}},{"type":"Feature","id":62,"geometry":{"type":"Point","coordinates":[190635.00289999973,1892105.5068999995]},"properties":{"OBJECTID":62,"Asset_ID":"Vlg62","Name":"Al Marakh","District_ID":null,"Gov_ID":"2","Wlyt_ID":"Salalah","Road_ID":null,"Latitude":17.09258758,"Longitude":54.09322264,"GlobalID":"{B7D40F03-5873-4749-A14E-A1348D479C9E}"}},{"type":"Feature","id":63,"geometry":{"type":"Point","coordinates":[190964.11780000012,1892835.2208999991]},"properties":{"OBJECTID":63,"Asset_ID":"Vlg63","Name":"Awb","District_ID":null,"Gov_ID":"2","Wlyt_ID":"Salalah","Road_ID":null,"Latitude":17.099219600000001,"Longitude":54.096209950000002,"GlobalID":"{7A50E9AB-429A-4EFD-A105-DB4645FF382E}"}},{"type":"Feature","id":64,"geometry":{"type":"Point","coordinates":[190453.5103000002,1892731.1098999996]},"properties":{"OBJECTID":64,"Asset_ID":"Vlg64","Name":"Dhashu","District_ID":null,"Gov_ID":"2","Wlyt_ID":"Salalah","Road_ID":null,"Latitude":17.098210909999999,"Longitude":54.091431229999998,"GlobalID":"{D0CCADF9-20B5-4497-9068-777BA0EBB1B7}"}},{"type":"Feature","id":65,"geometry":{"type":"Point","coordinates":[192625.12770000007,1893432.7410000004]},"properties":{"OBJECTID":65,"Asset_ID":"Vlg65","Name":"Shaqfinut","District_ID":null,"Gov_ID":"2","Wlyt_ID":"Salalah","Road_ID":null,"Latitude":17.104837010000001,"Longitude":54.111719569999998,"GlobalID":"{16544FE1-BFC5-40F9-99C1-20455552859D}"}},{"type":"Feature","id":66,"geometry":{"type":"Point","coordinates":[196013.04229999986,1891854.3920000009]},"properties":{"OBJECTID":66,"Asset_ID":"Vlg66","Name":"Sifath","District_ID":"Salalah Wellfield","Gov_ID":"2","Wlyt_ID":"Salalah","Road_ID":null,"Latitude":17.091038789999999,"Longitude":54.143742869999997,"GlobalID":"{C551C4B7-40B3-4B4B-B640-887CB1E52451}"}},{"type":"Feature","id":67,"geometry":{"type":"Point","coordinates":[193594.27909999993,1894378.7449999992]},"properties":{"OBJECTID":67,"Asset_ID":"Vlg67","Name":"Arkarfaf","District_ID":null,"Gov_ID":"2","Wlyt_ID":"Salalah","Road_ID":null,"Latitude":17.113507139999999,"Longitude":54.120686509999999,"GlobalID":"{07D6281E-F3D0-4ACA-8911-4F989E8C33DD}"}},{"type":"Feature","id":68,"geometry":{"type":"Point","coordinates":[193671.72229999956,1890303.0699000005]},"properties":{"OBJECTID":68,"Asset_ID":"Vlg68","Name":"Kawzu","District_ID":"Salalah Wellfield","Gov_ID":"2","Wlyt_ID":"Salalah","Road_ID":null,"Latitude":17.076722310000001,"Longitude":54.121979060000001,"GlobalID":"{16CB93A2-052E-4F03-A0A3-82B7D1746D9A}"}},{"type":"Feature","id":69,"geometry":{"type":"Point","coordinates":[189377.34300000034,1887758.6443000007]},"properties":{"OBJECTID":69,"Asset_ID":"Vlg69","Name":"Qartilat","District_ID":"Salalah Airport","Gov_ID":"2","Wlyt_ID":"Salalah","Road_ID":null,"Latitude":17.053175629999998,"Longitude":54.082027510000003,"GlobalID":"{E5C59E11-5095-4221-A50F-B07C88A7B0E2}"}},{"type":"Feature","id":70,"geometry":{"type":"Point","coordinates":[187459.4486999996,1888098.4174000006]},"properties":{"OBJECTID":70,"Asset_ID":"Vlg70","Name":"Dilta","District_ID":null,"Gov_ID":"2","Wlyt_ID":"Salalah","Road_ID":null,"Latitude":17.055983340000001,"Longitude":54.063980110000003,"GlobalID":"{EED0A54D-707B-479D-8853-443B7B1B48E0}"}}]}